[
 {
   "code": 11002,
   "name_kanji": "札幌市",
   "name_kana": "さっぽろし",
   "name_kana_breakdown": "さっ,ぽろ,し",
   "name_romaji": "Sapporo Shi",
   "prefecture_kanji": "北海道",
   "prefecture_kana": "ほっかいどう",
   "prefecture_kana_breakdown": "ほっ,かい,どう",
   "prefecture_romaji": "Hokkaido",
   "latitude": 43.05,
   "longitude": 141.35
 },
 {
   "code": 12025,
   "name_kanji": "函館市",
   "name_kana": "はこだてし",
   "name_kana_breakdown": "はこ,だて,し",
   "name_romaji": "Hakodate Shi",
   "prefecture_kanji": "北海道",
   "prefecture_kana": "ほっかいどう",
   "prefecture_kana_breakdown": "ほっ,かい,どう",
   "prefecture_romaji": "Hokkaido",
   "latitude": 41.76666667,
   "longitude": 140.7166667
 },
 {
   "code": 12033,
   "name_kanji": "小樽市",
   "name_kana": "おたるし",
   "name_kana_breakdown": "お,たる,し",
   "name_romaji": "Otaru Shi",
   "prefecture_kanji": "北海道",
   "prefecture_kana": "ほっかいどう",
   "prefecture_kana_breakdown": "ほっ,かい,どう",
   "prefecture_romaji": "Hokkaido",
   "latitude": 43.18333333,
   "longitude": 140.9833333
 },
 {
   "code": 12041,
   "name_kanji": "旭川市",
   "name_kana": "あさひかわし",
   "name_kana_breakdown": "あさひ,かわ,し",
   "name_romaji": "Asahikawa Shi",
   "prefecture_kanji": "北海道",
   "prefecture_kana": "ほっかいどう",
   "prefecture_kana_breakdown": "ほっ,かい,どう",
   "prefecture_romaji": "Hokkaido",
   "latitude": 43.76666667,
   "longitude": 142.35
 },
 {
   "code": 12050,
   "name_kanji": "室蘭市",
   "name_kana": "むろらんし",
   "name_kana_breakdown": "むろ,らん,し",
   "name_romaji": "Muroran Shi",
   "prefecture_kanji": "北海道",
   "prefecture_kana": "ほっかいどう",
   "prefecture_kana_breakdown": "ほっ,かい,どう",
   "prefecture_romaji": "Hokkaido",
   "latitude": 42.3,
   "longitude": 140.9666667
 },
 {
   "code": 12068,
   "name_kanji": "釧路市",
   "name_kana": "くしろし",
   "name_kana_breakdown": "くし,ろ,し",
   "name_romaji": "Kushiro Shi",
   "prefecture_kanji": "北海道",
   "prefecture_kana": "ほっかいどう",
   "prefecture_kana_breakdown": "ほっ,かい,どう",
   "prefecture_romaji": "Hokkaido",
   "latitude": 42.98333333,
   "longitude": 144.3666667
 },
 {
   "code": 12076,
   "name_kanji": "帯広市",
   "name_kana": "おびひろし",
   "name_kana_breakdown": "おび,ひろ,し",
   "name_romaji": "Obihiro Shi",
   "prefecture_kanji": "北海道",
   "prefecture_kana": "ほっかいどう",
   "prefecture_kana_breakdown": "ほっ,かい,どう",
   "prefecture_romaji": "Hokkaido",
   "latitude": 42.91666667,
   "longitude": 143.1833333
 },
 {
   "code": 12084,
   "name_kanji": "北見市",
   "name_kana": "きたみし",
   "name_kana_breakdown": "きた,み,し",
   "name_romaji": "Kitami Shi",
   "prefecture_kanji": "北海道",
   "prefecture_kana": "ほっかいどう",
   "prefecture_kana_breakdown": "ほっ,かい,どう",
   "prefecture_romaji": "Hokkaido",
   "latitude": 43.8,
   "longitude": 143.8833333
 },
 {
   "code": 12092,
   "name_kanji": "夕張市",
   "name_kana": "ゆうばりし",
   "name_kana_breakdown": "ゆう,ばり,し",
   "name_romaji": "Yubari Shi",
   "prefecture_kanji": "北海道",
   "prefecture_kana": "ほっかいどう",
   "prefecture_kana_breakdown": "ほっ,かい,どう",
   "prefecture_romaji": "Hokkaido",
   "latitude": 43.05,
   "longitude": 141.9666667
 },
 {
   "code": 12106,
   "name_kanji": "岩見沢市",
   "name_kana": "いわみざわし",
   "name_kana_breakdown": "いわ,み,ざわ,し",
   "name_romaji": "Iwamizawa Shi",
   "prefecture_kanji": "北海道",
   "prefecture_kana": "ほっかいどう",
   "prefecture_kana_breakdown": "ほっ,かい,どう",
   "prefecture_romaji": "Hokkaido",
   "latitude": 43.18333333,
   "longitude": 141.7666667
 },
 {
   "code": 12114,
   "name_kanji": "網走市",
   "name_kana": "あばしりし",
   "name_kana_breakdown": "あ,ばしり,し",
   "name_romaji": "Abashiri Shi",
   "prefecture_kanji": "北海道",
   "prefecture_kana": "ほっかいどう",
   "prefecture_kana_breakdown": "ほっ,かい,どう",
   "prefecture_romaji": "Hokkaido",
   "latitude": 44.01666667,
   "longitude": 144.2666667
 },
 {
   "code": 12122,
   "name_kanji": "留萌市",
   "name_kana": "るもいし",
   "name_kana_breakdown": "る,もい,し",
   "name_romaji": "Rumoi Shi",
   "prefecture_kanji": "北海道",
   "prefecture_kana": "ほっかいどう",
   "prefecture_kana_breakdown": "ほっ,かい,どう",
   "prefecture_romaji": "Hokkaido",
   "latitude": 43.93333333,
   "longitude": 141.6333333
 },
 {
   "code": 12131,
   "name_kanji": "苫小牧市",
   "name_kana": "とまこまいし",
   "name_kana_breakdown": "とま,こ,まい,し",
   "name_romaji": "Tomakomai Shi",
   "prefecture_kanji": "北海道",
   "prefecture_kana": "ほっかいどう",
   "prefecture_kana_breakdown": "ほっ,かい,どう",
   "prefecture_romaji": "Hokkaido",
   "latitude": 42.63333333,
   "longitude": 141.6
 },
 {
   "code": 12149,
   "name_kanji": "稚内市",
   "name_kana": "わっかないし",
   "name_kana_breakdown": "わっか,ない,し",
   "name_romaji": "Wakkanai Shi",
   "prefecture_kanji": "北海道",
   "prefecture_kana": "ほっかいどう",
   "prefecture_kana_breakdown": "ほっ,かい,どう",
   "prefecture_romaji": "Hokkaido",
   "latitude": 45.4,
   "longitude": 141.6666667
 },
 {
   "code": 12157,
   "name_kanji": "美唄市",
   "name_kana": "びばいし",
   "name_kana_breakdown": "び,ばい,し",
   "name_romaji": "Bibai Shi",
   "prefecture_kanji": "北海道",
   "prefecture_kana": "ほっかいどう",
   "prefecture_kana_breakdown": "ほっ,かい,どう",
   "prefecture_romaji": "Hokkaido",
   "latitude": 43.31666667,
   "longitude": 141.85
 },
 {
   "code": 12165,
   "name_kanji": "芦別市",
   "name_kana": "あしべつし",
   "name_kana_breakdown": "あし,べつ,し",
   "name_romaji": "Ashibetsu Shi",
   "prefecture_kanji": "北海道",
   "prefecture_kana": "ほっかいどう",
   "prefecture_kana_breakdown": "ほっ,かい,どう",
   "prefecture_romaji": "Hokkaido",
   "latitude": 43.51666667,
   "longitude": 142.1833333
 },
 {
   "code": 12173,
   "name_kanji": "江別市",
   "name_kana": "えべつし",
   "name_kana_breakdown": "え,べつ,し",
   "name_romaji": "Ebetsu Shi",
   "prefecture_kanji": "北海道",
   "prefecture_kana": "ほっかいどう",
   "prefecture_kana_breakdown": "ほっ,かい,どう",
   "prefecture_romaji": "Hokkaido",
   "latitude": 43.1,
   "longitude": 141.5333333
 },
 {
   "code": 12181,
   "name_kanji": "赤平市",
   "name_kana": "あかびらし",
   "name_kana_breakdown": "あか,びら,し",
   "name_romaji": "Akabira Shi",
   "prefecture_kanji": "北海道",
   "prefecture_kana": "ほっかいどう",
   "prefecture_kana_breakdown": "ほっ,かい,どう",
   "prefecture_romaji": "Hokkaido",
   "latitude": 43.55,
   "longitude": 142.0333333
 },
 {
   "code": 12190,
   "name_kanji": "紋別市",
   "name_kana": "もんべつし",
   "name_kana_breakdown": "もん,べつ,し",
   "name_romaji": "Monbetsu Shi",
   "prefecture_kanji": "北海道",
   "prefecture_kana": "ほっかいどう",
   "prefecture_kana_breakdown": "ほっ,かい,どう",
   "prefecture_romaji": "Hokkaido",
   "latitude": 44.35,
   "longitude": 143.35
 },
 {
   "code": 12203,
   "name_kanji": "士別市",
   "name_kana": "しべつし",
   "name_kana_breakdown": "し,べつ,し",
   "name_romaji": "Shibetsu Shi",
   "prefecture_kanji": "北海道",
   "prefecture_kana": "ほっかいどう",
   "prefecture_kana_breakdown": "ほっ,かい,どう",
   "prefecture_romaji": "Hokkaido",
   "latitude": 44.16666667,
   "longitude": 142.4
 },
 {
   "code": 12211,
   "name_kanji": "名寄市",
   "name_kana": "なよろし",
   "name_kana_breakdown": "な,よろ,し",
   "name_romaji": "Nayoro Shi",
   "prefecture_kanji": "北海道",
   "prefecture_kana": "ほっかいどう",
   "prefecture_kana_breakdown": "ほっ,かい,どう",
   "prefecture_romaji": "Hokkaido",
   "latitude": 44.35,
   "longitude": 142.45
 },
 {
   "code": 12220,
   "name_kanji": "三笠市",
   "name_kana": "みかさし",
   "name_kana_breakdown": "み,かさ,し",
   "name_romaji": "Mikasa Shi",
   "prefecture_kanji": "北海道",
   "prefecture_kana": "ほっかいどう",
   "prefecture_kana_breakdown": "ほっ,かい,どう",
   "prefecture_romaji": "Hokkaido",
   "latitude": 43.23333333,
   "longitude": 141.8666667
 },
 {
   "code": 12238,
   "name_kanji": "根室市",
   "name_kana": "ねむろし",
   "name_kana_breakdown": "ね,むろ,し",
   "name_romaji": "Nemuro Shi",
   "prefecture_kanji": "北海道",
   "prefecture_kana": "ほっかいどう",
   "prefecture_kana_breakdown": "ほっ,かい,どう",
   "prefecture_romaji": "Hokkaido",
   "latitude": 43.31666667,
   "longitude": 145.5666667
 },
 {
   "code": 12246,
   "name_kanji": "千歳市",
   "name_kana": "ちとせし",
   "name_kana_breakdown": "ち,とせ,し",
   "name_romaji": "Chitose Shi",
   "prefecture_kanji": "北海道",
   "prefecture_kana": "ほっかいどう",
   "prefecture_kana_breakdown": "ほっ,かい,どう",
   "prefecture_romaji": "Hokkaido",
   "latitude": 42.81666667,
   "longitude": 141.65
 },
 {
   "code": 12254,
   "name_kanji": "滝川市",
   "name_kana": "たきかわし",
   "name_kana_breakdown": "たき,かわ,し",
   "name_romaji": "Takikawa Shi",
   "prefecture_kanji": "北海道",
   "prefecture_kana": "ほっかいどう",
   "prefecture_kana_breakdown": "ほっ,かい,どう",
   "prefecture_romaji": "Hokkaido",
   "latitude": 43.55,
   "longitude": 141.9
 },
 {
   "code": 12262,
   "name_kanji": "砂川市",
   "name_kana": "すながわし",
   "name_kana_breakdown": "すな,がわ,し",
   "name_romaji": "Sunagawa Shi",
   "prefecture_kanji": "北海道",
   "prefecture_kana": "ほっかいどう",
   "prefecture_kana_breakdown": "ほっ,かい,どう",
   "prefecture_romaji": "Hokkaido",
   "latitude": 43.48333333,
   "longitude": 141.9
 },
 {
   "code": 12271,
   "name_kanji": "歌志内市",
   "name_kana": "うたしないし",
   "name_kana_breakdown": "うた,し,ない,し",
   "name_romaji": "Utashinai Shi",
   "prefecture_kanji": "北海道",
   "prefecture_kana": "ほっかいどう",
   "prefecture_kana_breakdown": "ほっ,かい,どう",
   "prefecture_romaji": "Hokkaido",
   "latitude": 43.51666667,
   "longitude": 142.0333333
 },
 {
   "code": 12289,
   "name_kanji": "深川市",
   "name_kana": "ふかがわし",
   "name_kana_breakdown": "ふか,がわ,し",
   "name_romaji": "Fukagawa Shi",
   "prefecture_kanji": "北海道",
   "prefecture_kana": "ほっかいどう",
   "prefecture_kana_breakdown": "ほっ,かい,どう",
   "prefecture_romaji": "Hokkaido",
   "latitude": 43.71666667,
   "longitude": 142.05
 },
 {
   "code": 12297,
   "name_kanji": "富良野市",
   "name_kana": "ふらのし",
   "name_kana_breakdown": "ふ,ら,の,し",
   "name_romaji": "Furano Shi",
   "prefecture_kanji": "北海道",
   "prefecture_kana": "ほっかいどう",
   "prefecture_kana_breakdown": "ほっ,かい,どう",
   "prefecture_romaji": "Hokkaido",
   "latitude": 43.33333333,
   "longitude": 142.3833333
 },
 {
   "code": 12301,
   "name_kanji": "登別市",
   "name_kana": "のぼりべつし",
   "name_kana_breakdown": "のぼり,べつ,し",
   "name_romaji": "Noboribetsu Shi",
   "prefecture_kanji": "北海道",
   "prefecture_kana": "ほっかいどう",
   "prefecture_kana_breakdown": "ほっ,かい,どう",
   "prefecture_romaji": "Hokkaido",
   "latitude": 42.4,
   "longitude": 141.1
 },
 {
   "code": 12319,
   "name_kanji": "恵庭市",
   "name_kana": "えにわし",
   "name_kana_breakdown": "え,にわ,し",
   "name_romaji": "Eniwa Shi",
   "prefecture_kanji": "北海道",
   "prefecture_kana": "ほっかいどう",
   "prefecture_kana_breakdown": "ほっ,かい,どう",
   "prefecture_romaji": "Hokkaido",
   "latitude": 42.86666667,
   "longitude": 141.5666667
 },
 {
   "code": 12335,
   "name_kanji": "伊達市",
   "name_kana": "だてし",
   "name_kana_breakdown": "だ,て,し",
   "name_romaji": "Date Shi",
   "prefecture_kanji": "北海道",
   "prefecture_kana": "ほっかいどう",
   "prefecture_kana_breakdown": "ほっ,かい,どう",
   "prefecture_romaji": "Hokkaido",
   "latitude": 42.46666667,
   "longitude": 140.85
 },
 {
   "code": 12343,
   "name_kanji": "北広島市",
   "name_kana": "きたひろしまし",
   "name_kana_breakdown": "きた,ひろ,しま,し",
   "name_romaji": "Kitahiroshima Shi",
   "prefecture_kanji": "北海道",
   "prefecture_kana": "ほっかいどう",
   "prefecture_kana_breakdown": "ほっ,かい,どう",
   "prefecture_romaji": "Hokkaido",
   "latitude": 42.98333333,
   "longitude": 141.55
 },
 {
   "code": 12351,
   "name_kanji": "石狩市",
   "name_kana": "いしかりし",
   "name_kana_breakdown": "いし,かり,し",
   "name_romaji": "Ishikari Shi",
   "prefecture_kanji": "北海道",
   "prefecture_kana": "ほっかいどう",
   "prefecture_kana_breakdown": "ほっ,かい,どう",
   "prefecture_romaji": "Hokkaido",
   "latitude": 43.16666667,
   "longitude": 141.3
 },
 {
   "code": 12360,
   "name_kanji": "北斗市",
   "name_kana": "ほくとし",
   "name_kana_breakdown": "ほく,と,し",
   "name_romaji": "Hokuto Shi",
   "prefecture_kanji": "北海道",
   "prefecture_kana": "ほっかいどう",
   "prefecture_kana_breakdown": "ほっ,かい,どう",
   "prefecture_romaji": "Hokkaido",
   "latitude": 41.81666667,
   "longitude": 140.65
 },
 {
   "code": 13030,
   "name_kanji": "当別町",
   "name_kana": "とうべつちょう",
   "name_kana_breakdown": "とう,べつ,ちょう",
   "name_romaji": "Tobetsu Cho",
   "prefecture_kanji": "北海道",
   "prefecture_kana": "ほっかいどう",
   "prefecture_kana_breakdown": "ほっ,かい,どう",
   "prefecture_romaji": "Hokkaido",
   "latitude": 43.21666667,
   "longitude": 141.5166667
 },
 {
   "code": 13048,
   "name_kanji": "新篠津村",
   "name_kana": "しんしのつむら",
   "name_kana_breakdown": "しん,しの,つ,むら",
   "name_romaji": "Shinshinotsu Mura",
   "prefecture_kanji": "北海道",
   "prefecture_kana": "ほっかいどう",
   "prefecture_kana_breakdown": "ほっ,かい,どう",
   "prefecture_romaji": "Hokkaido",
   "latitude": 43.21666667,
   "longitude": 141.6333333
 },
 {
   "code": 13315,
   "name_kanji": "松前町",
   "name_kana": "まつまえちょう",
   "name_kana_breakdown": "まつ,まえ,ちょう",
   "name_romaji": "Matsumae Cho",
   "prefecture_kanji": "北海道",
   "prefecture_kana": "ほっかいどう",
   "prefecture_kana_breakdown": "ほっ,かい,どう",
   "prefecture_romaji": "Hokkaido",
   "latitude": 41.41666667,
   "longitude": 140.1
 },
 {
   "code": 13323,
   "name_kanji": "福島町",
   "name_kana": "ふくしまちょう",
   "name_kana_breakdown": "ふく,しま,ちょう",
   "name_romaji": "Fukushima Cho",
   "prefecture_kanji": "北海道",
   "prefecture_kana": "ほっかいどう",
   "prefecture_kana_breakdown": "ほっ,かい,どう",
   "prefecture_romaji": "Hokkaido",
   "latitude": 41.48333333,
   "longitude": 140.25
 },
 {
   "code": 13331,
   "name_kanji": "知内町",
   "name_kana": "しりうちちょう",
   "name_kana_breakdown": "しり,うち,ちょう",
   "name_romaji": "Shiriuchi Cho",
   "prefecture_kanji": "北海道",
   "prefecture_kana": "ほっかいどう",
   "prefecture_kana_breakdown": "ほっ,かい,どう",
   "prefecture_romaji": "Hokkaido",
   "latitude": 41.58333333,
   "longitude": 140.4166667
 },
 {
   "code": 13340,
   "name_kanji": "木古内町",
   "name_kana": "きこないちょう",
   "name_kana_breakdown": "きこ,ない,ちょう,",
   "name_romaji": "Kikonai Cho",
   "prefecture_kanji": "北海道",
   "prefecture_kana": "ほっかいどう",
   "prefecture_kana_breakdown": "ほっ,かい,どう",
   "prefecture_romaji": "Hokkaido",
   "latitude": 41.66666667,
   "longitude": 140.4333333
 },
 {
   "code": 13374,
   "name_kanji": "七飯町",
   "name_kana": "ななえちょう",
   "name_kana_breakdown": "なな,え,ちょう",
   "name_romaji": "Nanae Cho",
   "prefecture_kanji": "北海道",
   "prefecture_kana": "ほっかいどう",
   "prefecture_kana_breakdown": "ほっ,かい,どう",
   "prefecture_romaji": "Hokkaido",
   "latitude": 41.88333333,
   "longitude": 140.6833333
 },
 {
   "code": 13439,
   "name_kanji": "鹿部町",
   "name_kana": "しかべちょう",
   "name_kana_breakdown": "しか,べ,ちょう",
   "name_romaji": "Shikabe Cho",
   "prefecture_kanji": "北海道",
   "prefecture_kana": "ほっかいどう",
   "prefecture_kana_breakdown": "ほっ,かい,どう",
   "prefecture_romaji": "Hokkaido",
   "latitude": 42.03333333,
   "longitude": 140.8
 },
 {
   "code": 13455,
   "name_kanji": "森町",
   "name_kana": "もりまち",
   "name_kana_breakdown": "もり,まち",
   "name_romaji": "Mori Machi",
   "prefecture_kanji": "北海道",
   "prefecture_kana": "ほっかいどう",
   "prefecture_kana_breakdown": "ほっ,かい,どう",
   "prefecture_romaji": "Hokkaido",
   "latitude": 42.1,
   "longitude": 140.5666667
 },
 {
   "code": 13463,
   "name_kanji": "八雲町",
   "name_kana": "やくもちょう",
   "name_kana_breakdown": "や,くも,ちょう",
   "name_romaji": "Yakumo Cho",
   "prefecture_kanji": "北海道",
   "prefecture_kana": "ほっかいどう",
   "prefecture_kana_breakdown": "ほっ,かい,どう",
   "prefecture_romaji": "Hokkaido",
   "latitude": 42.25,
   "longitude": 140.25
 },
 {
   "code": 13471,
   "name_kanji": "長万部町",
   "name_kana": "おしゃまんべちょう",
   "name_kana_breakdown": "おしゃ,まん,べ,ちょう",
   "name_romaji": "Oshamanbe Cho",
   "prefecture_kanji": "北海道",
   "prefecture_kana": "ほっかいどう",
   "prefecture_kana_breakdown": "ほっ,かい,どう",
   "prefecture_romaji": "Hokkaido",
   "latitude": 42.5,
   "longitude": 140.3666667
 },
 {
   "code": 13617,
   "name_kanji": "江差町",
   "name_kana": "えさしちょう",
   "name_kana_breakdown": "え,さし,ちょう",
   "name_romaji": "Esashi Cho",
   "prefecture_kanji": "北海道",
   "prefecture_kana": "ほっかいどう",
   "prefecture_kana_breakdown": "ほっ,かい,どう",
   "prefecture_romaji": "Hokkaido",
   "latitude": 41.86666667,
   "longitude": 140.1166667
 },
 {
   "code": 13625,
   "name_kanji": "上ノ国町",
   "name_kana": "かみのくにちょう",
   "name_kana_breakdown": "かみ,の,くに,ちょう",
   "name_romaji": "Kaminokuni Cho",
   "prefecture_kanji": "北海道",
   "prefecture_kana": "ほっかいどう",
   "prefecture_kana_breakdown": "ほっ,かい,どう",
   "prefecture_romaji": "Hokkaido",
   "latitude": 41.8,
   "longitude": 140.1166667
 },
 {
   "code": 13633,
   "name_kanji": "厚沢部町",
   "name_kana": "あっさぶちょう",
   "name_kana_breakdown": "あっ,さ,ぶ,ちょう",
   "name_romaji": "Assabu Cho",
   "prefecture_kanji": "北海道",
   "prefecture_kana": "ほっかいどう",
   "prefecture_kana_breakdown": "ほっ,かい,どう",
   "prefecture_romaji": "Hokkaido",
   "latitude": 41.91666667,
   "longitude": 140.2166667
 },
 {
   "code": 13641,
   "name_kanji": "乙部町",
   "name_kana": "おとべちょう",
   "name_kana_breakdown": "おと,べ,ちょう",
   "name_romaji": "Otobe Cho",
   "prefecture_kanji": "北海道",
   "prefecture_kana": "ほっかいどう",
   "prefecture_kana_breakdown": "ほっ,かい,どう",
   "prefecture_romaji": "Hokkaido",
   "latitude": 41.96666667,
   "longitude": 140.1333333
 },
 {
   "code": 13676,
   "name_kanji": "奥尻町",
   "name_kana": "おくしりちょう",
   "name_kana_breakdown": "おく,しり,ちょう",
   "name_romaji": "Okushiri Cho",
   "prefecture_kanji": "北海道",
   "prefecture_kana": "ほっかいどう",
   "prefecture_kana_breakdown": "ほっ,かい,どう",
   "prefecture_romaji": "Hokkaido",
   "latitude": 42.16666667,
   "longitude": 139.5
 },
 {
   "code": 13706,
   "name_kanji": "今金町",
   "name_kana": "いまかねちょう",
   "name_kana_breakdown": "いま,かね,ちょう",
   "name_romaji": "Imakane Cho",
   "prefecture_kanji": "北海道",
   "prefecture_kana": "ほっかいどう",
   "prefecture_kana_breakdown": "ほっ,かい,どう",
   "prefecture_romaji": "Hokkaido",
   "latitude": 42.41666667,
   "longitude": 140
 },
 {
   "code": 13714,
   "name_kanji": "せたな町",
   "name_kana": "せたなちょう",
   "name_kana_breakdown": "せたな,ちょう",
   "name_romaji": "Setana Cho",
   "prefecture_kanji": "北海道",
   "prefecture_kana": "ほっかいどう",
   "prefecture_kana_breakdown": "ほっ,かい,どう",
   "prefecture_romaji": "Hokkaido",
   "latitude": 42.4,
   "longitude": 139.8666667
 },
 {
   "code": 13919,
   "name_kanji": "島牧村",
   "name_kana": "しままきむら",
   "name_kana_breakdown": "しま,まき,むら",
   "name_romaji": "Shimamaki Mura",
   "prefecture_kanji": "北海道",
   "prefecture_kana": "ほっかいどう",
   "prefecture_kana_breakdown": "ほっ,かい,どう",
   "prefecture_romaji": "Hokkaido",
   "latitude": 42.7,
   "longitude": 140.05
 },
 {
   "code": 13927,
   "name_kanji": "寿都町",
   "name_kana": "すっつちょう",
   "name_kana_breakdown": "すっ,つ,ちょう",
   "name_romaji": "Suttsu Cho",
   "prefecture_kanji": "北海道",
   "prefecture_kana": "ほっかいどう",
   "prefecture_kana_breakdown": "ほっ,かい,どう",
   "prefecture_romaji": "Hokkaido",
   "latitude": 42.78333333,
   "longitude": 140.2166667
 },
 {
   "code": 13935,
   "name_kanji": "黒松内町",
   "name_kana": "くろまつないちょう",
   "name_kana_breakdown": "くろ,まつ,ない,ちょう",
   "name_romaji": "Kuromatsunai Cho",
   "prefecture_kanji": "北海道",
   "prefecture_kana": "ほっかいどう",
   "prefecture_kana_breakdown": "ほっ,かい,どう",
   "prefecture_romaji": "Hokkaido",
   "latitude": 42.66666667,
   "longitude": 140.3
 },
 {
   "code": 13943,
   "name_kanji": "蘭越町",
   "name_kana": "らんこしちょう",
   "name_kana_breakdown": "らん,こし,ちょう",
   "name_romaji": "Rankoshi Cho",
   "prefecture_kanji": "北海道",
   "prefecture_kana": "ほっかいどう",
   "prefecture_kana_breakdown": "ほっ,かい,どう",
   "prefecture_romaji": "Hokkaido",
   "latitude": 42.8,
   "longitude": 140.5166667
 },
 {
   "code": 13951,
   "name_kanji": "ニセコ町",
   "name_kana": "にせこちょう",
   "name_kana_breakdown": "にせこ,ちょう",
   "name_romaji": "Niseko Cho",
   "prefecture_kanji": "北海道",
   "prefecture_kana": "ほっかいどう",
   "prefecture_kana_breakdown": "ほっ,かい,どう",
   "prefecture_romaji": "Hokkaido",
   "latitude": 42.8,
   "longitude": 140.6833333
 },
 {
   "code": 13960,
   "name_kanji": "真狩村",
   "name_kana": "まっかりむら",
   "name_kana_breakdown": "まっ,かり,むら",
   "name_romaji": "Makkari Mura",
   "prefecture_kanji": "北海道",
   "prefecture_kana": "ほっかいどう",
   "prefecture_kana_breakdown": "ほっ,かい,どう",
   "prefecture_romaji": "Hokkaido",
   "latitude": 42.75,
   "longitude": 140.8
 },
 {
   "code": 13978,
   "name_kanji": "留寿都村",
   "name_kana": "るすつむら",
   "name_kana_breakdown": "る,す,つ,むら",
   "name_romaji": "Rusutsu Mura",
   "prefecture_kanji": "北海道",
   "prefecture_kana": "ほっかいどう",
   "prefecture_kana_breakdown": "ほっ,かい,どう",
   "prefecture_romaji": "Hokkaido",
   "latitude": 42.73333333,
   "longitude": 140.8666667
 },
 {
   "code": 13986,
   "name_kanji": "喜茂別町",
   "name_kana": "きもべつちょう",
   "name_kana_breakdown": "き,も,べつ,ちょう",
   "name_romaji": "Kimobetsu Cho",
   "prefecture_kanji": "北海道",
   "prefecture_kana": "ほっかいどう",
   "prefecture_kana_breakdown": "ほっ,かい,どう",
   "prefecture_romaji": "Hokkaido",
   "latitude": 42.78333333,
   "longitude": 140.9333333
 },
 {
   "code": 13994,
   "name_kanji": "京極町",
   "name_kana": "きょうごくちょう",
   "name_kana_breakdown": "きょう,ごく,ちょう",
   "name_romaji": "Kyogoku Cho",
   "prefecture_kanji": "北海道",
   "prefecture_kana": "ほっかいどう",
   "prefecture_kana_breakdown": "ほっ,かい,どう",
   "prefecture_romaji": "Hokkaido",
   "latitude": 42.85,
   "longitude": 140.8833333
 },
 {
   "code": 14001,
   "name_kanji": "倶知安町",
   "name_kana": "くっちゃんちょう",
   "name_kana_breakdown": "くっ,ちゃん,ちょう",
   "name_romaji": "Kutchan Cho",
   "prefecture_kanji": "北海道",
   "prefecture_kana": "ほっかいどう",
   "prefecture_kana_breakdown": "ほっ,かい,どう",
   "prefecture_romaji": "Hokkaido",
   "latitude": 42.9,
   "longitude": 140.75
 },
 {
   "code": 14010,
   "name_kanji": "共和町",
   "name_kana": "きょうわちょう",
   "name_kana_breakdown": "きょう,わ,ちょう",
   "name_romaji": "Kyowa Cho",
   "prefecture_kanji": "北海道",
   "prefecture_kana": "ほっかいどう",
   "prefecture_kana_breakdown": "ほっ,かい,どう",
   "prefecture_romaji": "Hokkaido",
   "latitude": 42.96666667,
   "longitude": 140.6
 },
 {
   "code": 14028,
   "name_kanji": "岩内町",
   "name_kana": "いわないちょう",
   "name_kana_breakdown": "いわ,ない,ちょう",
   "name_romaji": "Iwanai Cho",
   "prefecture_kanji": "北海道",
   "prefecture_kana": "ほっかいどう",
   "prefecture_kana_breakdown": "ほっ,かい,どう",
   "prefecture_romaji": "Hokkaido",
   "latitude": 42.96666667,
   "longitude": 140.5
 },
 {
   "code": 14036,
   "name_kanji": "泊村",
   "name_kana": "とまりむら",
   "name_kana_breakdown": "とまり,むら",
   "name_romaji": "Tomari Mura",
   "prefecture_kanji": "北海道",
   "prefecture_kana": "ほっかいどう",
   "prefecture_kana_breakdown": "ほっ,かい,どう",
   "prefecture_romaji": "Hokkaido",
   "latitude": 43.05,
   "longitude": 140.4833333
 },
 {
   "code": 14044,
   "name_kanji": "神恵内村",
   "name_kana": "かもえないむら",
   "name_kana_breakdown": "か,もえ,ない,むら",
   "name_romaji": "Kamoenai Mura",
   "prefecture_kanji": "北海道",
   "prefecture_kana": "ほっかいどう",
   "prefecture_kana_breakdown": "ほっ,かい,どう",
   "prefecture_romaji": "Hokkaido",
   "latitude": 43.13333333,
   "longitude": 140.4166667
 },
 {
   "code": 14052,
   "name_kanji": "積丹町",
   "name_kana": "しゃこたんちょう",
   "name_kana_breakdown": "しゃこ,たん,ちょう",
   "name_romaji": "Shakotan Cho",
   "prefecture_kanji": "北海道",
   "prefecture_kana": "ほっかいどう",
   "prefecture_kana_breakdown": "ほっ,かい,どう",
   "prefecture_romaji": "Hokkaido",
   "latitude": 43.28333333,
   "longitude": 140.5833333
 },
 {
   "code": 14061,
   "name_kanji": "古平町",
   "name_kana": "ふるびらちょう",
   "name_kana_breakdown": "ふる,びら,ちょう",
   "name_romaji": "Furubira Cho",
   "prefecture_kanji": "北海道",
   "prefecture_kana": "ほっかいどう",
   "prefecture_kana_breakdown": "ほっ,かい,どう",
   "prefecture_romaji": "Hokkaido",
   "latitude": 43.25,
   "longitude": 140.6333333
 },
 {
   "code": 14079,
   "name_kanji": "仁木町",
   "name_kana": "にきちょう",
   "name_kana_breakdown": "にき,ちょう",
   "name_romaji": "Niki Cho",
   "prefecture_kanji": "北海道",
   "prefecture_kana": "ほっかいどう",
   "prefecture_kana_breakdown": "ほっ,かい,どう",
   "prefecture_romaji": "Hokkaido",
   "latitude": 43.15,
   "longitude": 140.75
 },
 {
   "code": 14087,
   "name_kanji": "余市町",
   "name_kana": "よいちちょう",
   "name_kana_breakdown": "よ,いち,ちょう",
   "name_romaji": "Yoichi Cho",
   "prefecture_kanji": "北海道",
   "prefecture_kana": "ほっかいどう",
   "prefecture_kana_breakdown": "ほっ,かい,どう",
   "prefecture_romaji": "Hokkaido",
   "latitude": 43.18333333,
   "longitude": 140.7833333
 },
 {
   "code": 14095,
   "name_kanji": "赤井川村",
   "name_kana": "あかいがわむら",
   "name_kana_breakdown": "あか,い,がわ,むら",
   "name_romaji": "Akaigawa Mura",
   "prefecture_kanji": "北海道",
   "prefecture_kana": "ほっかいどう",
   "prefecture_kana_breakdown": "ほっ,かい,どう",
   "prefecture_romaji": "Hokkaido",
   "latitude": 43.08333333,
   "longitude": 140.8
 },
 {
   "code": 14231,
   "name_kanji": "南幌町",
   "name_kana": "なんぽろちょう",
   "name_kana_breakdown": "なん,ぽろ,ちょう",
   "name_romaji": "Nanporo Cho",
   "prefecture_kanji": "北海道",
   "prefecture_kana": "ほっかいどう",
   "prefecture_kana_breakdown": "ほっ,かい,どう",
   "prefecture_romaji": "Hokkaido",
   "latitude": 43.05,
   "longitude": 141.65
 },
 {
   "code": 14249,
   "name_kanji": "奈井江町",
   "name_kana": "ないえちょう",
   "name_kana_breakdown": "な,い,え,ちょう",
   "name_romaji": "Naie Cho",
   "prefecture_kanji": "北海道",
   "prefecture_kana": "ほっかいどう",
   "prefecture_kana_breakdown": "ほっ,かい,どう",
   "prefecture_romaji": "Hokkaido",
   "latitude": 43.41666667,
   "longitude": 141.8666667
 },
 {
   "code": 14257,
   "name_kanji": "上砂川町",
   "name_kana": "かみすながわちょう",
   "name_kana_breakdown": "かみ,すな,がわ,ちょう",
   "name_romaji": "Kamisunagawa Cho",
   "prefecture_kanji": "北海道",
   "prefecture_kana": "ほっかいどう",
   "prefecture_kana_breakdown": "ほっ,かい,どう",
   "prefecture_romaji": "Hokkaido",
   "latitude": 43.46666667,
   "longitude": 141.9666667
 },
 {
   "code": 14273,
   "name_kanji": "由仁町",
   "name_kana": "ゆにちょう",
   "name_kana_breakdown": "ゆ,に,ちょう",
   "name_romaji": "Yuni Cho",
   "prefecture_kanji": "北海道",
   "prefecture_kana": "ほっかいどう",
   "prefecture_kana_breakdown": "ほっ,かい,どう",
   "prefecture_romaji": "Hokkaido",
   "latitude": 42.98333333,
   "longitude": 141.7833333
 },
 {
   "code": 14281,
   "name_kanji": "長沼町",
   "name_kana": "ながぬまちょう",
   "name_kana_breakdown": "なが,ぬま,ちょう",
   "name_romaji": "Naganuma Cho",
   "prefecture_kanji": "北海道",
   "prefecture_kana": "ほっかいどう",
   "prefecture_kana_breakdown": "ほっ,かい,どう",
   "prefecture_romaji": "Hokkaido",
   "latitude": 43,
   "longitude": 141.6833333
 },
 {
   "code": 14290,
   "name_kanji": "栗山町",
   "name_kana": "くりやまちょう",
   "name_kana_breakdown": "くり,やま,ちょう",
   "name_romaji": "Kuriyama Cho",
   "prefecture_kanji": "北海道",
   "prefecture_kana": "ほっかいどう",
   "prefecture_kana_breakdown": "ほっ,かい,どう",
   "prefecture_romaji": "Hokkaido",
   "latitude": 43.05,
   "longitude": 141.7833333
 },
 {
   "code": 14303,
   "name_kanji": "月形町",
   "name_kana": "つきがたちょう",
   "name_kana_breakdown": "つき,がた,ちょう",
   "name_romaji": "Tsukigata Cho",
   "prefecture_kanji": "北海道",
   "prefecture_kana": "ほっかいどう",
   "prefecture_kana_breakdown": "ほっ,かい,どう",
   "prefecture_romaji": "Hokkaido",
   "latitude": 43.33333333,
   "longitude": 141.6666667
 },
 {
   "code": 14311,
   "name_kanji": "浦臼町",
   "name_kana": "うらうすちょう",
   "name_kana_breakdown": "うら,うす,ちょう",
   "name_romaji": "Urausu Cho",
   "prefecture_kanji": "北海道",
   "prefecture_kana": "ほっかいどう",
   "prefecture_kana_breakdown": "ほっ,かい,どう",
   "prefecture_romaji": "Hokkaido",
   "latitude": 43.41666667,
   "longitude": 141.8166667
 },
 {
   "code": 14320,
   "name_kanji": "新十津川町",
   "name_kana": "しんとつかわちょう",
   "name_kana_breakdown": "しん,と,つ,かわ,ちょう",
   "name_romaji": "Shintotsukawa Cho",
   "prefecture_kanji": "北海道",
   "prefecture_kana": "ほっかいどう",
   "prefecture_kana_breakdown": "ほっ,かい,どう",
   "prefecture_romaji": "Hokkaido",
   "latitude": 43.53333333,
   "longitude": 141.8666667
 },
 {
   "code": 14338,
   "name_kanji": "妹背牛町",
   "name_kana": "もせうしちょう",
   "name_kana_breakdown": "も,せ,うし,ちょう",
   "name_romaji": "Moseushi Cho",
   "prefecture_kanji": "北海道",
   "prefecture_kana": "ほっかいどう",
   "prefecture_kana_breakdown": "ほっ,かい,どう",
   "prefecture_romaji": "Hokkaido",
   "latitude": 43.7,
   "longitude": 141.95
 },
 {
   "code": 14346,
   "name_kanji": "秩父別町",
   "name_kana": "ちっぷべつちょう",
   "name_kana_breakdown": "ちっ,ぷ,べつ,ちょう",
   "name_romaji": "Chippubetsu Cho",
   "prefecture_kanji": "北海道",
   "prefecture_kana": "ほっかいどう",
   "prefecture_kana_breakdown": "ほっ,かい,どう",
   "prefecture_romaji": "Hokkaido",
   "latitude": 43.76666667,
   "longitude": 141.95
 },
 {
   "code": 14362,
   "name_kanji": "雨竜町",
   "name_kana": "うりゅうちょう",
   "name_kana_breakdown": "う,りゅう,ちょう",
   "name_romaji": "Uryu Cho",
   "prefecture_kanji": "北海道",
   "prefecture_kana": "ほっかいどう",
   "prefecture_kana_breakdown": "ほっ,かい,どう",
   "prefecture_romaji": "Hokkaido",
   "latitude": 43.63333333,
   "longitude": 141.8833333
 },
 {
   "code": 14371,
   "name_kanji": "北竜町",
   "name_kana": "ほくりゅうちょう",
   "name_kana_breakdown": "ほく,りゅう,ちょう",
   "name_romaji": "Hokuryu Cho",
   "prefecture_kanji": "北海道",
   "prefecture_kana": "ほっかいどう",
   "prefecture_kana_breakdown": "ほっ,かい,どう",
   "prefecture_romaji": "Hokkaido",
   "latitude": 43.71666667,
   "longitude": 141.8666667
 },
 {
   "code": 14389,
   "name_kanji": "沼田町",
   "name_kana": "ぬまたちょう",
   "name_kana_breakdown": "ぬま,た,ちょう",
   "name_romaji": "Numata Cho",
   "prefecture_kanji": "北海道",
   "prefecture_kana": "ほっかいどう",
   "prefecture_kana_breakdown": "ほっ,かい,どう",
   "prefecture_romaji": "Hokkaido",
   "latitude": 43.8,
   "longitude": 141.9333333
 },
 {
   "code": 14524,
   "name_kanji": "鷹栖町",
   "name_kana": "たかすちょう",
   "name_kana_breakdown": "たか,す,ちょう",
   "name_romaji": "Takasu Cho",
   "prefecture_kanji": "北海道",
   "prefecture_kana": "ほっかいどう",
   "prefecture_kana_breakdown": "ほっ,かい,どう",
   "prefecture_romaji": "Hokkaido",
   "latitude": 43.83333333,
   "longitude": 142.35
 },
 {
   "code": 14532,
   "name_kanji": "東神楽町",
   "name_kana": "ひがしかぐらちょう",
   "name_kana_breakdown": "ひがし,かぐ,ら,ちょう",
   "name_romaji": "Higashikagura Cho",
   "prefecture_kanji": "北海道",
   "prefecture_kana": "ほっかいどう",
   "prefecture_kana_breakdown": "ほっ,かい,どう",
   "prefecture_romaji": "Hokkaido",
   "latitude": 43.68333333,
   "longitude": 142.45
 },
 {
   "code": 14541,
   "name_kanji": "当麻町",
   "name_kana": "とうまちょう",
   "name_kana_breakdown": "とう,ま,ちょう",
   "name_romaji": "Toma Cho",
   "prefecture_kanji": "北海道",
   "prefecture_kana": "ほっかいどう",
   "prefecture_kana_breakdown": "ほっ,かい,どう",
   "prefecture_romaji": "Hokkaido",
   "latitude": 43.81666667,
   "longitude": 142.5
 },
 {
   "code": 14559,
   "name_kanji": "比布町",
   "name_kana": "ぴっぷちょう",
   "name_kana_breakdown": "ぴっ,ぷ,ちょう",
   "name_romaji": "Pippu Cho",
   "prefecture_kanji": "北海道",
   "prefecture_kana": "ほっかいどう",
   "prefecture_kana_breakdown": "ほっ,かい,どう",
   "prefecture_romaji": "Hokkaido",
   "latitude": 43.86666667,
   "longitude": 142.4666667
 },
 {
   "code": 14567,
   "name_kanji": "愛別町",
   "name_kana": "あいべつちょう",
   "name_kana_breakdown": "あい,べつ,ちょう",
   "name_romaji": "Aibetsu Cho",
   "prefecture_kanji": "北海道",
   "prefecture_kana": "ほっかいどう",
   "prefecture_kana_breakdown": "ほっ,かい,どう",
   "prefecture_romaji": "Hokkaido",
   "latitude": 43.9,
   "longitude": 142.5666667
 },
 {
   "code": 14575,
   "name_kanji": "上川町",
   "name_kana": "かみかわちょう",
   "name_kana_breakdown": "かみ,かわ,ちょう",
   "name_romaji": "Kamikawa Cho",
   "prefecture_kanji": "北海道",
   "prefecture_kana": "ほっかいどう",
   "prefecture_kana_breakdown": "ほっ,かい,どう",
   "prefecture_romaji": "Hokkaido",
   "latitude": 43.83333333,
   "longitude": 142.7666667
 },
 {
   "code": 14583,
   "name_kanji": "東川町",
   "name_kana": "ひがしかわちょう",
   "name_kana_breakdown": "ひがし,かわ,ちょう",
   "name_romaji": "Higashikawa Cho",
   "prefecture_kanji": "北海道",
   "prefecture_kana": "ほっかいどう",
   "prefecture_kana_breakdown": "ほっ,かい,どう",
   "prefecture_romaji": "Hokkaido",
   "latitude": 43.68333333,
   "longitude": 142.5
 },
 {
   "code": 14591,
   "name_kanji": "美瑛町",
   "name_kana": "びえいちょう",
   "name_kana_breakdown": "び,えい,ちょう",
   "name_romaji": "Biei Cho",
   "prefecture_kanji": "北海道",
   "prefecture_kana": "ほっかいどう",
   "prefecture_kana_breakdown": "ほっ,かい,どう",
   "prefecture_romaji": "Hokkaido",
   "latitude": 43.58333333,
   "longitude": 142.4666667
 },
 {
   "code": 14605,
   "name_kanji": "上富良野町",
   "name_kana": "かみふらのちょう",
   "name_kana_breakdown": "かみ,ふ,ら,の,ちょう",
   "name_romaji": "Kamifurano Cho",
   "prefecture_kanji": "北海道",
   "prefecture_kana": "ほっかいどう",
   "prefecture_kana_breakdown": "ほっ,かい,どう",
   "prefecture_romaji": "Hokkaido",
   "latitude": 43.45,
   "longitude": 142.4666667
 },
 {
   "code": 14613,
   "name_kanji": "中富良野町",
   "name_kana": "なかふらのちょう",
   "name_kana_breakdown": "なか,ふ,ら,の,ちょう",
   "name_romaji": "Nakafurano Cho",
   "prefecture_kanji": "北海道",
   "prefecture_kana": "ほっかいどう",
   "prefecture_kana_breakdown": "ほっ,かい,どう",
   "prefecture_romaji": "Hokkaido",
   "latitude": 43.4,
   "longitude": 142.4166667
 },
 {
   "code": 14621,
   "name_kanji": "南富良野町",
   "name_kana": "みなみふらのちょう",
   "name_kana_breakdown": "みなみ,ふ,ら,の,ちょう",
   "name_romaji": "Minamifurano Cho",
   "prefecture_kanji": "北海道",
   "prefecture_kana": "ほっかいどう",
   "prefecture_kana_breakdown": "ほっ,かい,どう",
   "prefecture_romaji": "Hokkaido",
   "latitude": 43.15,
   "longitude": 142.5666667
 },
 {
   "code": 14630,
   "name_kanji": "占冠村",
   "name_kana": "しむかっぷむら",
   "name_kana_breakdown": "しむ,かっぷ,むら",
   "name_romaji": "Shimukappu Mura",
   "prefecture_kanji": "北海道",
   "prefecture_kana": "ほっかいどう",
   "prefecture_kana_breakdown": "ほっ,かい,どう",
   "prefecture_romaji": "Hokkaido",
   "latitude": 42.96666667,
   "longitude": 142.3833333
 },
 {
   "code": 14648,
   "name_kanji": "和寒町",
   "name_kana": "わっさむちょう",
   "name_kana_breakdown": "わっ,さむ,ちょう",
   "name_romaji": "Wassamu Cho",
   "prefecture_kanji": "北海道",
   "prefecture_kana": "ほっかいどう",
   "prefecture_kana_breakdown": "ほっ,かい,どう",
   "prefecture_romaji": "Hokkaido",
   "latitude": 44.01666667,
   "longitude": 142.4
 },
 {
   "code": 14656,
   "name_kanji": "剣淵町",
   "name_kana": "けんぶちちょう",
   "name_kana_breakdown": "けん,ぶち,ちょう",
   "name_romaji": "Kenbuchi Cho",
   "prefecture_kanji": "北海道",
   "prefecture_kana": "ほっかいどう",
   "prefecture_kana_breakdown": "ほっ,かい,どう",
   "prefecture_romaji": "Hokkaido",
   "latitude": 44.08333333,
   "longitude": 142.35
 },
 {
   "code": 14681,
   "name_kanji": "下川町",
   "name_kana": "しもかわちょう",
   "name_kana_breakdown": "しも,かわ,ちょう",
   "name_romaji": "Shimokawa Cho",
   "prefecture_kanji": "北海道",
   "prefecture_kana": "ほっかいどう",
   "prefecture_kana_breakdown": "ほっ,かい,どう",
   "prefecture_romaji": "Hokkaido",
   "latitude": 44.3,
   "longitude": 142.6333333
 },
 {
   "code": 14699,
   "name_kanji": "美深町",
   "name_kana": "びふかちょう",
   "name_kana_breakdown": "び,ふか,ちょう",
   "name_romaji": "Bifuka Cho",
   "prefecture_kanji": "北海道",
   "prefecture_kana": "ほっかいどう",
   "prefecture_kana_breakdown": "ほっ,かい,どう",
   "prefecture_romaji": "Hokkaido",
   "latitude": 44.46666667,
   "longitude": 142.3333333
 },
 {
   "code": 14702,
   "name_kanji": "音威子府村",
   "name_kana": "おといねっぷむら",
   "name_kana_breakdown": "おと,い,ねっ,ぷ,むら",
   "name_romaji": "Otoineppu Mura",
   "prefecture_kanji": "北海道",
   "prefecture_kana": "ほっかいどう",
   "prefecture_kana_breakdown": "ほっ,かい,どう",
   "prefecture_romaji": "Hokkaido",
   "latitude": 44.71666667,
   "longitude": 142.25
 },
 {
   "code": 14711,
   "name_kanji": "中川町",
   "name_kana": "なかがわちょう",
   "name_kana_breakdown": "なか,がわ,ちょう",
   "name_romaji": "Nakagawa Cho",
   "prefecture_kanji": "北海道",
   "prefecture_kana": "ほっかいどう",
   "prefecture_kana_breakdown": "ほっ,かい,どう",
   "prefecture_romaji": "Hokkaido",
   "latitude": 44.8,
   "longitude": 142.0666667
 },
 {
   "code": 14729,
   "name_kanji": "幌加内町",
   "name_kana": "ほろかないちょう",
   "name_kana_breakdown": "ほろ,か,ない,ちょう",
   "name_romaji": "Horokanai Cho",
   "prefecture_kanji": "北海道",
   "prefecture_kana": "ほっかいどう",
   "prefecture_kana_breakdown": "ほっ,かい,どう",
   "prefecture_romaji": "Hokkaido",
   "latitude": 44,
   "longitude": 142.15
 },
 {
   "code": 14818,
   "name_kanji": "増毛町",
   "name_kana": "ましけちょう",
   "name_kana_breakdown": "まし,け,ちょう",
   "name_romaji": "Mashike Cho",
   "prefecture_kanji": "北海道",
   "prefecture_kana": "ほっかいどう",
   "prefecture_kana_breakdown": "ほっ,かい,どう",
   "prefecture_romaji": "Hokkaido",
   "latitude": 43.85,
   "longitude": 141.5166667
 },
 {
   "code": 14826,
   "name_kanji": "小平町",
   "name_kana": "おびらちょう",
   "name_kana_breakdown": "お,びら,ちょう",
   "name_romaji": "Obira Cho",
   "prefecture_kanji": "北海道",
   "prefecture_kana": "ほっかいどう",
   "prefecture_kana_breakdown": "ほっ,かい,どう",
   "prefecture_romaji": "Hokkaido",
   "latitude": 44,
   "longitude": 141.65
 },
 {
   "code": 14834,
   "name_kanji": "苫前町",
   "name_kana": "とままえちょう",
   "name_kana_breakdown": "とま,まえ,ちょう",
   "name_romaji": "Tomamae Cho",
   "prefecture_kanji": "北海道",
   "prefecture_kana": "ほっかいどう",
   "prefecture_kana_breakdown": "ほっ,かい,どう",
   "prefecture_romaji": "Hokkaido",
   "latitude": 44.3,
   "longitude": 141.65
 },
 {
   "code": 14842,
   "name_kanji": "羽幌町",
   "name_kana": "はぼろちょう",
   "name_kana_breakdown": "は,ぼろ,ちょう",
   "name_romaji": "Haboro Cho",
   "prefecture_kanji": "北海道",
   "prefecture_kana": "ほっかいどう",
   "prefecture_kana_breakdown": "ほっ,かい,どう",
   "prefecture_romaji": "Hokkaido",
   "latitude": 44.35,
   "longitude": 141.6833333
 },
 {
   "code": 14851,
   "name_kanji": "初山別村",
   "name_kana": "しょさんべつむら",
   "name_kana_breakdown": "しょ,さん,べつ,むら",
   "name_romaji": "Shosanbetsu Mura",
   "prefecture_kanji": "北海道",
   "prefecture_kana": "ほっかいどう",
   "prefecture_kana_breakdown": "ほっ,かい,どう",
   "prefecture_romaji": "Hokkaido",
   "latitude": 44.51666667,
   "longitude": 141.75
 },
 {
   "code": 14869,
   "name_kanji": "遠別町",
   "name_kana": "えんべつちょう",
   "name_kana_breakdown": "えん,べつ,ちょう",
   "name_romaji": "Enbetsu Cho",
   "prefecture_kanji": "北海道",
   "prefecture_kana": "ほっかいどう",
   "prefecture_kana_breakdown": "ほっ,かい,どう",
   "prefecture_romaji": "Hokkaido",
   "latitude": 44.71666667,
   "longitude": 141.7833333
 },
 {
   "code": 14877,
   "name_kanji": "天塩町",
   "name_kana": "てしおちょう",
   "name_kana_breakdown": "て,しお,ちょう",
   "name_romaji": "Teshio Cho",
   "prefecture_kanji": "北海道",
   "prefecture_kana": "ほっかいどう",
   "prefecture_kana_breakdown": "ほっ,かい,どう",
   "prefecture_romaji": "Hokkaido",
   "latitude": 44.88333333,
   "longitude": 141.7333333
 },
 {
   "code": 15113,
   "name_kanji": "猿払村",
   "name_kana": "さるふつむら",
   "name_kana_breakdown": "さる,ふつ,むら",
   "name_romaji": "Sarufutsu Mura",
   "prefecture_kanji": "北海道",
   "prefecture_kana": "ほっかいどう",
   "prefecture_kana_breakdown": "ほっ,かい,どう",
   "prefecture_romaji": "Hokkaido",
   "latitude": 45.31666667,
   "longitude": 142.1
 },
 {
   "code": 15121,
   "name_kanji": "浜頓別町",
   "name_kana": "はまとんべつちょう",
   "name_kana_breakdown": "はま,とん,べつ,ちょう",
   "name_romaji": "Hamatonbetsu Cho",
   "prefecture_kanji": "北海道",
   "prefecture_kana": "ほっかいどう",
   "prefecture_kana_breakdown": "ほっ,かい,どう",
   "prefecture_romaji": "Hokkaido",
   "latitude": 45.11666667,
   "longitude": 142.35
 },
 {
   "code": 15130,
   "name_kanji": "中頓別町",
   "name_kana": "なかとんべつちょう",
   "name_kana_breakdown": "なか,とん,べつ,ちょう",
   "name_romaji": "Nakatonbetsu Cho",
   "prefecture_kanji": "北海道",
   "prefecture_kana": "ほっかいどう",
   "prefecture_kana_breakdown": "ほっ,かい,どう",
   "prefecture_romaji": "Hokkaido",
   "latitude": 44.96666667,
   "longitude": 142.2833333
 },
 {
   "code": 15148,
   "name_kanji": "枝幸町",
   "name_kana": "えさしちょう",
   "name_kana_breakdown": "え,さし,ちょう",
   "name_romaji": "Esashi Cho",
   "prefecture_kanji": "北海道",
   "prefecture_kana": "ほっかいどう",
   "prefecture_kana_breakdown": "ほっ,かい,どう",
   "prefecture_romaji": "Hokkaido",
   "latitude": 44.93333333,
   "longitude": 142.5666667
 },
 {
   "code": 15164,
   "name_kanji": "豊富町",
   "name_kana": "とよとみちょう",
   "name_kana_breakdown": "とよ,とみ,ちょう",
   "name_romaji": "Toyotomi Cho",
   "prefecture_kanji": "北海道",
   "prefecture_kana": "ほっかいどう",
   "prefecture_kana_breakdown": "ほっ,かい,どう",
   "prefecture_romaji": "Hokkaido",
   "latitude": 45.1,
   "longitude": 141.7666667
 },
 {
   "code": 15172,
   "name_kanji": "礼文町",
   "name_kana": "れぶんちょう",
   "name_kana_breakdown": "れ,ぶん,ちょう",
   "name_romaji": "Rebun Cho",
   "prefecture_kanji": "北海道",
   "prefecture_kana": "ほっかいどう",
   "prefecture_kana_breakdown": "ほっ,かい,どう",
   "prefecture_romaji": "Hokkaido",
   "latitude": 45.3,
   "longitude": 141.0333333
 },
 {
   "code": 15181,
   "name_kanji": "利尻町",
   "name_kana": "りしりちょう",
   "name_kana_breakdown": "り,しり,ちょう",
   "name_romaji": "Rishiri Cho",
   "prefecture_kanji": "北海道",
   "prefecture_kana": "ほっかいどう",
   "prefecture_kana_breakdown": "ほっ,かい,どう",
   "prefecture_romaji": "Hokkaido",
   "latitude": 45.18333333,
   "longitude": 141.1333333
 },
 {
   "code": 15199,
   "name_kanji": "利尻富士町",
   "name_kana": "りしりふじちょう",
   "name_kana_breakdown": "り,しり,ふ,じ,ちょう",
   "name_romaji": "Rishirifuji Cho",
   "prefecture_kanji": "北海道",
   "prefecture_kana": "ほっかいどう",
   "prefecture_kana_breakdown": "ほっ,かい,どう",
   "prefecture_romaji": "Hokkaido",
   "latitude": 45.23333333,
   "longitude": 141.2
 },
 {
   "code": 15202,
   "name_kanji": "幌延町",
   "name_kana": "ほろのべちょう",
   "name_kana_breakdown": "ほろ,のべ,ちょう",
   "name_romaji": "Horonobe Cho",
   "prefecture_kanji": "北海道",
   "prefecture_kana": "ほっかいどう",
   "prefecture_kana_breakdown": "ほっ,かい,どう",
   "prefecture_romaji": "Hokkaido",
   "latitude": 45.01666667,
   "longitude": 141.8333333
 },
 {
   "code": 15431,
   "name_kanji": "美幌町",
   "name_kana": "びほろちょう",
   "name_kana_breakdown": "び,ほろ,ちょう",
   "name_romaji": "Bihoro Cho",
   "prefecture_kanji": "北海道",
   "prefecture_kana": "ほっかいどう",
   "prefecture_kana_breakdown": "ほっ,かい,どう",
   "prefecture_romaji": "Hokkaido",
   "latitude": 43.81666667,
   "longitude": 144.1
 },
 {
   "code": 15440,
   "name_kanji": "津別町",
   "name_kana": "つべつちょう",
   "name_kana_breakdown": "つ,べつ,ちょう",
   "name_romaji": "Tsubetsu Cho",
   "prefecture_kanji": "北海道",
   "prefecture_kana": "ほっかいどう",
   "prefecture_kana_breakdown": "ほっ,かい,どう",
   "prefecture_romaji": "Hokkaido",
   "latitude": 43.7,
   "longitude": 144.0166667
 },
 {
   "code": 15458,
   "name_kanji": "斜里町",
   "name_kana": "しゃりちょう",
   "name_kana_breakdown": "しゃ,り,ちょう",
   "name_romaji": "Shari Cho",
   "prefecture_kanji": "北海道",
   "prefecture_kana": "ほっかいどう",
   "prefecture_kana_breakdown": "ほっ,かい,どう",
   "prefecture_romaji": "Hokkaido",
   "latitude": 43.9,
   "longitude": 144.6666667
 },
 {
   "code": 15466,
   "name_kanji": "清里町",
   "name_kana": "きよさとちょう",
   "name_kana_breakdown": "きよ,さと,ちょう",
   "name_romaji": "Kiyosato Cho",
   "prefecture_kanji": "北海道",
   "prefecture_kana": "ほっかいどう",
   "prefecture_kana_breakdown": "ほっ,かい,どう",
   "prefecture_romaji": "Hokkaido",
   "latitude": 43.83333333,
   "longitude": 144.5833333
 },
 {
   "code": 15474,
   "name_kanji": "小清水町",
   "name_kana": "こしみずちょう",
   "name_kana_breakdown": "こ,し,みず,ちょう",
   "name_romaji": "Koshimizu Cho",
   "prefecture_kanji": "北海道",
   "prefecture_kana": "ほっかいどう",
   "prefecture_kana_breakdown": "ほっ,かい,どう",
   "prefecture_romaji": "Hokkaido",
   "latitude": 43.85,
   "longitude": 144.45
 },
 {
   "code": 15491,
   "name_kanji": "訓子府町",
   "name_kana": "くんねっぷちょう",
   "name_kana_breakdown": "くん,ねっ,ぷ,ちょう",
   "name_romaji": "Kunneppu Cho",
   "prefecture_kanji": "北海道",
   "prefecture_kana": "ほっかいどう",
   "prefecture_kana_breakdown": "ほっ,かい,どう",
   "prefecture_romaji": "Hokkaido",
   "latitude": 43.71666667,
   "longitude": 143.7333333
 },
 {
   "code": 15504,
   "name_kanji": "置戸町",
   "name_kana": "おけとちょう",
   "name_kana_breakdown": "おけ,と,ちょう",
   "name_romaji": "Oketo Cho",
   "prefecture_kanji": "北海道",
   "prefecture_kana": "ほっかいどう",
   "prefecture_kana_breakdown": "ほっ,かい,どう",
   "prefecture_romaji": "Hokkaido",
   "latitude": 43.66666667,
   "longitude": 143.5833333
 },
 {
   "code": 15521,
   "name_kanji": "佐呂間町",
   "name_kana": "さろまちょう",
   "name_kana_breakdown": "さ,ろ,ま,ちょう",
   "name_romaji": "Saroma Cho",
   "prefecture_kanji": "北海道",
   "prefecture_kana": "ほっかいどう",
   "prefecture_kana_breakdown": "ほっ,かい,どう",
   "prefecture_romaji": "Hokkaido",
   "latitude": 44.01666667,
   "longitude": 143.7666667
 },
 {
   "code": 15555,
   "name_kanji": "遠軽町",
   "name_kana": "えんがるちょう",
   "name_kana_breakdown": "えん,がる,ちょう",
   "name_romaji": "Engaru Cho",
   "prefecture_kanji": "北海道",
   "prefecture_kana": "ほっかいどう",
   "prefecture_kana_breakdown": "ほっ,かい,どう",
   "prefecture_romaji": "Hokkaido",
   "latitude": 44.05,
   "longitude": 143.5166667
 },
 {
   "code": 15598,
   "name_kanji": "湧別町",
   "name_kana": "ゆうべつちょう",
   "name_kana_breakdown": "ゆう,べつ,ちょう",
   "name_romaji": "Yubetsu Cho",
   "prefecture_kanji": "北海道",
   "prefecture_kana": "ほっかいどう",
   "prefecture_kana_breakdown": "ほっ,かい,どう",
   "prefecture_romaji": "Hokkaido",
   "latitude": 44.21666667,
   "longitude": 143.6
 },
 {
   "code": 15601,
   "name_kanji": "滝上町",
   "name_kana": "たきのうえちょう",
   "name_kana_breakdown": "たきの,うえ,ちょう",
   "name_romaji": "Takinoue Cho",
   "prefecture_kanji": "北海道",
   "prefecture_kana": "ほっかいどう",
   "prefecture_kana_breakdown": "ほっ,かい,どう",
   "prefecture_romaji": "Hokkaido",
   "latitude": 44.18333333,
   "longitude": 143.0666667
 },
 {
   "code": 15610,
   "name_kanji": "興部町",
   "name_kana": "おこっぺちょう",
   "name_kana_breakdown": "おこっ,ぺ,ちょう",
   "name_romaji": "Okoppe Cho",
   "prefecture_kanji": "北海道",
   "prefecture_kana": "ほっかいどう",
   "prefecture_kana_breakdown": "ほっ,かい,どう",
   "prefecture_romaji": "Hokkaido",
   "latitude": 44.46666667,
   "longitude": 143.1166667
 },
 {
   "code": 15628,
   "name_kanji": "西興部村",
   "name_kana": "にしおこっぺむら",
   "name_kana_breakdown": "にし,おこっ,ぺ,むら",
   "name_romaji": "Nishiokoppe Mura",
   "prefecture_kanji": "北海道",
   "prefecture_kana": "ほっかいどう",
   "prefecture_kana_breakdown": "ほっ,かい,どう",
   "prefecture_romaji": "Hokkaido",
   "latitude": 44.31666667,
   "longitude": 142.9333333
 },
 {
   "code": 15636,
   "name_kanji": "雄武町",
   "name_kana": "おうむちょう",
   "name_kana_breakdown": "おう,む,ちょう",
   "name_romaji": "Omu Cho",
   "prefecture_kanji": "北海道",
   "prefecture_kana": "ほっかいどう",
   "prefecture_kana_breakdown": "ほっ,かい,どう",
   "prefecture_romaji": "Hokkaido",
   "latitude": 44.56666667,
   "longitude": 142.95
 },
 {
   "code": 15644,
   "name_kanji": "大空町",
   "name_kana": "おおぞらちょう",
   "name_kana_breakdown": "おお,ぞら,ちょう",
   "name_romaji": "Ozora Cho",
   "prefecture_kanji": "北海道",
   "prefecture_kana": "ほっかいどう",
   "prefecture_kana_breakdown": "ほっ,かい,どう",
   "prefecture_romaji": "Hokkaido",
   "latitude": 43.9,
   "longitude": 144.1666667
 },
 {
   "code": 15717,
   "name_kanji": "豊浦町",
   "name_kana": "とようらちょう",
   "name_kana_breakdown": "とよ,うら,ちょう",
   "name_romaji": "Toyoura Cho",
   "prefecture_kanji": "北海道",
   "prefecture_kana": "ほっかいどう",
   "prefecture_kana_breakdown": "ほっ,かい,どう",
   "prefecture_romaji": "Hokkaido",
   "latitude": 42.58333333,
   "longitude": 140.7
 },
 {
   "code": 15750,
   "name_kanji": "壮瞥町",
   "name_kana": "そうべつちょう",
   "name_kana_breakdown": "そう,べつ,ちょう",
   "name_romaji": "Sobetsu Cho",
   "prefecture_kanji": "北海道",
   "prefecture_kana": "ほっかいどう",
   "prefecture_kana_breakdown": "ほっ,かい,どう",
   "prefecture_romaji": "Hokkaido",
   "latitude": 42.55,
   "longitude": 140.8833333
 },
 {
   "code": 15784,
   "name_kanji": "白老町",
   "name_kana": "しらおいちょう",
   "name_kana_breakdown": "しら,おい,ちょう",
   "name_romaji": "Shiraoi Cho",
   "prefecture_kanji": "北海道",
   "prefecture_kana": "ほっかいどう",
   "prefecture_kana_breakdown": "ほっ,かい,どう",
   "prefecture_romaji": "Hokkaido",
   "latitude": 42.55,
   "longitude": 141.35
 },
 {
   "code": 15814,
   "name_kanji": "厚真町",
   "name_kana": "あつまちょう",
   "name_kana_breakdown": "あつ,ま,ちょう",
   "name_romaji": "Atsuma Cho",
   "prefecture_kanji": "北海道",
   "prefecture_kana": "ほっかいどう",
   "prefecture_kana_breakdown": "ほっ,かい,どう",
   "prefecture_romaji": "Hokkaido",
   "latitude": 42.71666667,
   "longitude": 141.8666667
 },
 {
   "code": 15849,
   "name_kanji": "洞爺湖町",
   "name_kana": "とうやこちょう",
   "name_kana_breakdown": "とう,や,こ,ちょう",
   "name_romaji": "Toyako Cho",
   "prefecture_kanji": "北海道",
   "prefecture_kana": "ほっかいどう",
   "prefecture_kana_breakdown": "ほっ,かい,どう",
   "prefecture_romaji": "Hokkaido",
   "latitude": 42.55,
   "longitude": 140.75
 },
 {
   "code": 15857,
   "name_kanji": "安平町",
   "name_kana": "あびらちょう",
   "name_kana_breakdown": "あ,びら,ちょう",
   "name_romaji": "Abira Cho",
   "prefecture_kanji": "北海道",
   "prefecture_kana": "ほっかいどう",
   "prefecture_kana_breakdown": "ほっ,かい,どう",
   "prefecture_romaji": "Hokkaido",
   "latitude": 42.75,
   "longitude": 141.8166667
 },
 {
   "code": 15865,
   "name_kanji": "むかわ町",
   "name_kana": "むかわちょう",
   "name_kana_breakdown": "むかわ,ちょう",
   "name_romaji": "Mukawa Cho",
   "prefecture_kanji": "北海道",
   "prefecture_kana": "ほっかいどう",
   "prefecture_kana_breakdown": "ほっ,かい,どう",
   "prefecture_romaji": "Hokkaido",
   "latitude": 42.56666667,
   "longitude": 141.9166667
 },
 {
   "code": 16012,
   "name_kanji": "日高町",
   "name_kana": "ひだかちょう",
   "name_kana_breakdown": "ひ,だか,ちょう",
   "name_romaji": "Hidaka Cho",
   "prefecture_kanji": "北海道",
   "prefecture_kana": "ほっかいどう",
   "prefecture_kana_breakdown": "ほっ,かい,どう",
   "prefecture_romaji": "Hokkaido",
   "latitude": 42.46666667,
   "longitude": 142.0666667
 },
 {
   "code": 16021,
   "name_kanji": "平取町",
   "name_kana": "びらとりちょう",
   "name_kana_breakdown": "びら,とり,ちょう",
   "name_romaji": "Biratori Cho",
   "prefecture_kanji": "北海道",
   "prefecture_kana": "ほっかいどう",
   "prefecture_kana_breakdown": "ほっ,かい,どう",
   "prefecture_romaji": "Hokkaido",
   "latitude": 42.58333333,
   "longitude": 142.1166667
 },
 {
   "code": 16047,
   "name_kanji": "新冠町",
   "name_kana": "にいかっぷちょう",
   "name_kana_breakdown": "にい,かっぷ,ちょう",
   "name_romaji": "Niikappu Cho",
   "prefecture_kanji": "北海道",
   "prefecture_kana": "ほっかいどう",
   "prefecture_kana_breakdown": "ほっ,かい,どう",
   "prefecture_romaji": "Hokkaido",
   "latitude": 42.35,
   "longitude": 142.3166667
 },
 {
   "code": 16071,
   "name_kanji": "浦河町",
   "name_kana": "うらかわちょう",
   "name_kana_breakdown": "うら,かわ,ちょう",
   "name_romaji": "Urakawa Cho",
   "prefecture_kanji": "北海道",
   "prefecture_kana": "ほっかいどう",
   "prefecture_kana_breakdown": "ほっ,かい,どう",
   "prefecture_romaji": "Hokkaido",
   "latitude": 42.16666667,
   "longitude": 142.7666667
 },
 {
   "code": 16080,
   "name_kanji": "様似町",
   "name_kana": "さまにちょう",
   "name_kana_breakdown": "さま,に,ちょう",
   "name_romaji": "Samani Cho",
   "prefecture_kanji": "北海道",
   "prefecture_kana": "ほっかいどう",
   "prefecture_kana_breakdown": "ほっ,かい,どう",
   "prefecture_romaji": "Hokkaido",
   "latitude": 42.11666667,
   "longitude": 142.9333333
 },
 {
   "code": 16098,
   "name_kanji": "えりも町",
   "name_kana": "えりもちょう",
   "name_kana_breakdown": "えりも,ちょう",
   "name_romaji": "Erimo Cho",
   "prefecture_kanji": "北海道",
   "prefecture_kana": "ほっかいどう",
   "prefecture_kana_breakdown": "ほっ,かい,どう",
   "prefecture_romaji": "Hokkaido",
   "latitude": 42,
   "longitude": 143.1333333
 },
 {
   "code": 16101,
   "name_kanji": "新ひだか町",
   "name_kana": "しんひだかちょう",
   "name_kana_breakdown": "しん,ひだか,ちょう",
   "name_romaji": "Shinhidaka Cho",
   "prefecture_kanji": "北海道",
   "prefecture_kana": "ほっかいどう",
   "prefecture_kana_breakdown": "ほっ,かい,どう",
   "prefecture_romaji": "Hokkaido",
   "latitude": 42.33333333,
   "longitude": 142.3666667
 },
 {
   "code": 16314,
   "name_kanji": "音更町",
   "name_kana": "おとふけちょう",
   "name_kana_breakdown": "おと,ふけ,ちょう",
   "name_romaji": "Otofuke Cho",
   "prefecture_kanji": "北海道",
   "prefecture_kana": "ほっかいどう",
   "prefecture_kana_breakdown": "ほっ,かい,どう",
   "prefecture_romaji": "Hokkaido",
   "latitude": 42.98333333,
   "longitude": 143.1833333
 },
 {
   "code": 16322,
   "name_kanji": "士幌町",
   "name_kana": "しほろちょう",
   "name_kana_breakdown": "し,ほろ,ちょう",
   "name_romaji": "Shihoro Cho",
   "prefecture_kanji": "北海道",
   "prefecture_kana": "ほっかいどう",
   "prefecture_kana_breakdown": "ほっ,かい,どう",
   "prefecture_romaji": "Hokkaido",
   "latitude": 43.16666667,
   "longitude": 143.2333333
 },
 {
   "code": 16331,
   "name_kanji": "上士幌町",
   "name_kana": "かみしほろちょう",
   "name_kana_breakdown": "かみ,し,ほろ,ちょう",
   "name_romaji": "Kamishihoro Cho",
   "prefecture_kanji": "北海道",
   "prefecture_kana": "ほっかいどう",
   "prefecture_kana_breakdown": "ほっ,かい,どう",
   "prefecture_romaji": "Hokkaido",
   "latitude": 43.21666667,
   "longitude": 143.2833333
 },
 {
   "code": 16349,
   "name_kanji": "鹿追町",
   "name_kana": "しかおいちょう",
   "name_kana_breakdown": "しか,おい,ちょう",
   "name_romaji": "Shikaoi Cho",
   "prefecture_kanji": "北海道",
   "prefecture_kana": "ほっかいどう",
   "prefecture_kana_breakdown": "ほっ,かい,どう",
   "prefecture_romaji": "Hokkaido",
   "latitude": 43.08333333,
   "longitude": 142.9833333
 },
 {
   "code": 16357,
   "name_kanji": "新得町",
   "name_kana": "しんとくちょう",
   "name_kana_breakdown": "しん,とく,ちょう",
   "name_romaji": "Shintoku Cho",
   "prefecture_kanji": "北海道",
   "prefecture_kana": "ほっかいどう",
   "prefecture_kana_breakdown": "ほっ,かい,どう",
   "prefecture_romaji": "Hokkaido",
   "latitude": 43.06666667,
   "longitude": 142.8333333
 },
 {
   "code": 16365,
   "name_kanji": "清水町",
   "name_kana": "しみずちょう",
   "name_kana_breakdown": "し,みず,ちょう",
   "name_romaji": "Shimizu Cho",
   "prefecture_kanji": "北海道",
   "prefecture_kana": "ほっかいどう",
   "prefecture_kana_breakdown": "ほっ,かい,どう",
   "prefecture_romaji": "Hokkaido",
   "latitude": 43,
   "longitude": 142.8833333
 },
 {
   "code": 16373,
   "name_kanji": "芽室町",
   "name_kana": "めむろちょう",
   "name_kana_breakdown": "め,むろ,ちょう",
   "name_romaji": "Memuro Cho",
   "prefecture_kanji": "北海道",
   "prefecture_kana": "ほっかいどう",
   "prefecture_kana_breakdown": "ほっ,かい,どう",
   "prefecture_romaji": "Hokkaido",
   "latitude": 42.9,
   "longitude": 143.05
 },
 {
   "code": 16381,
   "name_kanji": "中札内村",
   "name_kana": "なかさつないむら",
   "name_kana_breakdown": "なか,さつ,ない,むら",
   "name_romaji": "Nakasatsunai Mura",
   "prefecture_kanji": "北海道",
   "prefecture_kana": "ほっかいどう",
   "prefecture_kana_breakdown": "ほっ,かい,どう",
   "prefecture_romaji": "Hokkaido",
   "latitude": 42.68333333,
   "longitude": 143.1166667
 },
 {
   "code": 16390,
   "name_kanji": "更別村",
   "name_kana": "さらべつむら",
   "name_kana_breakdown": "さら,べつ,むら",
   "name_romaji": "Sarabetsu Mura",
   "prefecture_kanji": "北海道",
   "prefecture_kana": "ほっかいどう",
   "prefecture_kana_breakdown": "ほっ,かい,どう",
   "prefecture_romaji": "Hokkaido",
   "latitude": 42.65,
   "longitude": 143.1833333
 },
 {
   "code": 16411,
   "name_kanji": "大樹町",
   "name_kana": "たいきちょう",
   "name_kana_breakdown": "たい,き,ちょう",
   "name_romaji": "Taiki Cho",
   "prefecture_kanji": "北海道",
   "prefecture_kana": "ほっかいどう",
   "prefecture_kana_breakdown": "ほっ,かい,どう",
   "prefecture_romaji": "Hokkaido",
   "latitude": 42.48333333,
   "longitude": 143.2666667
 },
 {
   "code": 16420,
   "name_kanji": "広尾町",
   "name_kana": "ひろおちょう",
   "name_kana_breakdown": "ひろ,お,ちょう",
   "name_romaji": "Hiroo Cho",
   "prefecture_kanji": "北海道",
   "prefecture_kana": "ほっかいどう",
   "prefecture_kana_breakdown": "ほっ,かい,どう",
   "prefecture_romaji": "Hokkaido",
   "latitude": 42.28333333,
   "longitude": 143.3
 },
 {
   "code": 16438,
   "name_kanji": "幕別町",
   "name_kana": "まくべつちょう",
   "name_kana_breakdown": "まく,べつ,ちょう",
   "name_romaji": "Makubetsu Cho",
   "prefecture_kanji": "北海道",
   "prefecture_kana": "ほっかいどう",
   "prefecture_kana_breakdown": "ほっ,かい,どう",
   "prefecture_romaji": "Hokkaido",
   "latitude": 42.9,
   "longitude": 143.35
 },
 {
   "code": 16446,
   "name_kanji": "池田町",
   "name_kana": "いけだちょう",
   "name_kana_breakdown": "いけ,だ,ちょう",
   "name_romaji": "Ikeda Cho",
   "prefecture_kanji": "北海道",
   "prefecture_kana": "ほっかいどう",
   "prefecture_kana_breakdown": "ほっ,かい,どう",
   "prefecture_romaji": "Hokkaido",
   "latitude": 42.91666667,
   "longitude": 143.4333333
 },
 {
   "code": 16454,
   "name_kanji": "豊頃町",
   "name_kana": "とよころちょう",
   "name_kana_breakdown": "とよ,ころ,ちょう",
   "name_romaji": "Toyokoro Cho",
   "prefecture_kanji": "北海道",
   "prefecture_kana": "ほっかいどう",
   "prefecture_kana_breakdown": "ほっ,かい,どう",
   "prefecture_romaji": "Hokkaido",
   "latitude": 42.8,
   "longitude": 143.5
 },
 {
   "code": 16462,
   "name_kanji": "本別町",
   "name_kana": "ほんべつちょう",
   "name_kana_breakdown": "ほん,べつ,ちょう",
   "name_romaji": "Honbetsu Cho",
   "prefecture_kanji": "北海道",
   "prefecture_kana": "ほっかいどう",
   "prefecture_kana_breakdown": "ほっ,かい,どう",
   "prefecture_romaji": "Hokkaido",
   "latitude": 43.11666667,
   "longitude": 143.6
 },
 {
   "code": 16471,
   "name_kanji": "足寄町",
   "name_kana": "あしょろちょう",
   "name_kana_breakdown": "あしょ,ろ,ちょう",
   "name_kana_notes": "Irregular reading: 足寄 (あしょろ) is a blend between 足 (あし)  and 寄 (よろ)",
   "name_romaji": "Ashoro Cho",
   "prefecture_kanji": "北海道",
   "prefecture_kana": "ほっかいどう",
   "prefecture_kana_breakdown": "ほっ,かい,どう",
   "prefecture_romaji": "Hokkaido",
   "latitude": 43.23333333,
   "longitude": 143.55
 },
 {
   "code": 16489,
   "name_kanji": "陸別町",
   "name_kana": "りくべつちょう",
   "name_kana_breakdown": "りく,べつ,ちょう",
   "name_romaji": "Rikubetsu Cho",
   "prefecture_kanji": "北海道",
   "prefecture_kana": "ほっかいどう",
   "prefecture_kana_breakdown": "ほっ,かい,どう",
   "prefecture_romaji": "Hokkaido",
   "latitude": 43.46666667,
   "longitude": 143.7333333
 },
 {
   "code": 16497,
   "name_kanji": "浦幌町",
   "name_kana": "うらほろちょう",
   "name_kana_breakdown": "うら,ほろ,ちょう",
   "name_romaji": "Urahoro Cho",
   "prefecture_kanji": "北海道",
   "prefecture_kana": "ほっかいどう",
   "prefecture_kana_breakdown": "ほっ,かい,どう",
   "prefecture_romaji": "Hokkaido",
   "latitude": 42.8,
   "longitude": 143.65
 },
 {
   "code": 16616,
   "name_kanji": "釧路町",
   "name_kana": "くしろちょう",
   "name_kana_breakdown": "くし,ろ,ちょう",
   "name_romaji": "Kushiro Cho",
   "prefecture_kanji": "北海道",
   "prefecture_kana": "ほっかいどう",
   "prefecture_kana_breakdown": "ほっ,かい,どう",
   "prefecture_romaji": "Hokkaido",
   "latitude": 42.98333333,
   "longitude": 144.45
 },
 {
   "code": 16624,
   "name_kanji": "厚岸町",
   "name_kana": "あっけしちょう",
   "name_kana_breakdown": "あっけ,し,ちょう",
   "name_romaji": "Akkeshi Cho",
   "prefecture_kanji": "北海道",
   "prefecture_kana": "ほっかいどう",
   "prefecture_kana_breakdown": "ほっ,かい,どう",
   "prefecture_romaji": "Hokkaido",
   "latitude": 43.05,
   "longitude": 144.8333333
 },
 {
   "code": 16632,
   "name_kanji": "浜中町",
   "name_kana": "はまなかちょう",
   "name_kana_breakdown": "はま,なか,ちょう",
   "name_romaji": "Hamanaka Cho",
   "prefecture_kanji": "北海道",
   "prefecture_kana": "ほっかいどう",
   "prefecture_kana_breakdown": "ほっ,かい,どう",
   "prefecture_romaji": "Hokkaido",
   "latitude": 43.06666667,
   "longitude": 145.1166667
 },
 {
   "code": 16641,
   "name_kanji": "標茶町",
   "name_kana": "しべちゃちょう",
   "name_kana_breakdown": "しべ,ちゃ,ちょう",
   "name_romaji": "Shibecha Cho",
   "prefecture_kanji": "北海道",
   "prefecture_kana": "ほっかいどう",
   "prefecture_kana_breakdown": "ほっ,かい,どう",
   "prefecture_romaji": "Hokkaido",
   "latitude": 43.3,
   "longitude": 144.6
 },
 {
   "code": 16659,
   "name_kanji": "弟子屈町",
   "name_kana": "てしかがちょう",
   "name_kana_breakdown": "て,し,かが,ちょう",
   "name_romaji": "Teshikaga Cho",
   "prefecture_kanji": "北海道",
   "prefecture_kana": "ほっかいどう",
   "prefecture_kana_breakdown": "ほっ,かい,どう",
   "prefecture_romaji": "Hokkaido",
   "latitude": 43.48333333,
   "longitude": 144.45
 },
 {
   "code": 16675,
   "name_kanji": "鶴居村",
   "name_kana": "つるいむら",
   "name_kana_breakdown": "つる,い,むら",
   "name_romaji": "Tsurui Mura",
   "prefecture_kanji": "北海道",
   "prefecture_kana": "ほっかいどう",
   "prefecture_kana_breakdown": "ほっ,かい,どう",
   "prefecture_romaji": "Hokkaido",
   "latitude": 43.21666667,
   "longitude": 144.3166667
 },
 {
   "code": 16683,
   "name_kanji": "白糠町",
   "name_kana": "しらぬかちょう",
   "name_kana_breakdown": "しら,ぬか,ちょう",
   "name_romaji": "Shiranuka Cho",
   "prefecture_kanji": "北海道",
   "prefecture_kana": "ほっかいどう",
   "prefecture_kana_breakdown": "ほっ,かい,どう",
   "prefecture_romaji": "Hokkaido",
   "latitude": 42.95,
   "longitude": 144.0666667
 },
 {
   "code": 16918,
   "name_kanji": "別海町",
   "name_kana": "べつかいちょう",
   "name_kana_breakdown": "べつ,かい,ちょう",
   "name_romaji": "Betsukai Cho",
   "prefecture_kanji": "北海道",
   "prefecture_kana": "ほっかいどう",
   "prefecture_kana_breakdown": "ほっ,かい,どう",
   "prefecture_romaji": "Hokkaido",
   "latitude": 43.38333333,
   "longitude": 145.1166667
 },
 {
   "code": 16926,
   "name_kanji": "中標津町",
   "name_kana": "なかしべつちょう",
   "name_kana_breakdown": "なか,しべ,つ,ちょう",
   "name_romaji": "Nakashibetsu Cho",
   "prefecture_kanji": "北海道",
   "prefecture_kana": "ほっかいどう",
   "prefecture_kana_breakdown": "ほっ,かい,どう",
   "prefecture_romaji": "Hokkaido",
   "latitude": 43.55,
   "longitude": 144.9666667
 },
 {
   "code": 16934,
   "name_kanji": "標津町",
   "name_kana": "しべつちょう",
   "name_kana_breakdown": "しべ,つ,ちょう",
   "name_romaji": "Shibetsu Cho",
   "prefecture_kanji": "北海道",
   "prefecture_kana": "ほっかいどう",
   "prefecture_kana_breakdown": "ほっ,かい,どう",
   "prefecture_romaji": "Hokkaido",
   "latitude": 43.65,
   "longitude": 145.1166667
 },
 {
   "code": 16942,
   "name_kanji": "羅臼町",
   "name_kana": "らうすちょう",
   "name_kana_breakdown": "ら,うす,ちょう",
   "name_romaji": "Rausu Cho",
   "prefecture_kanji": "北海道",
   "prefecture_kana": "ほっかいどう",
   "prefecture_kana_breakdown": "ほっ,かい,どう",
   "prefecture_romaji": "Hokkaido",
   "latitude": 44.01666667,
   "longitude": 145.1833333
 },
 {
   "code": 22012,
   "name_kanji": "青森市",
   "name_kana": "あおもりし",
   "name_kana_breakdown": "あお,もり,し",
   "name_romaji": "Aomori Shi",
   "prefecture_kanji": "青森県",
   "prefecture_kana": "あおもりけん",
   "prefecture_kana_breakdown": "あお,もり,けん",
   "prefecture_romaji": "Aomori Ken",
   "latitude": 40.81666667,
   "longitude": 140.7333333
 },
 {
   "code": 22021,
   "name_kanji": "弘前市",
   "name_kana": "ひろさきし",
   "name_kana_breakdown": "ひろ,さき,し",
   "name_romaji": "Hirosaki Shi",
   "prefecture_kanji": "青森県",
   "prefecture_kana": "あおもりけん",
   "prefecture_kana_breakdown": "あお,もり,けん",
   "prefecture_romaji": "Aomori Ken",
   "latitude": 40.6,
   "longitude": 140.45
 },
 {
   "code": 22039,
   "name_kanji": "八戸市",
   "name_kana": "はちのへし",
   "name_kana_breakdown": "はちの,へ,し",
   "name_kana_notes": "Hidden particle (の): はち,の,へ,し",
   "name_romaji": "Hachinohe Shi",
   "prefecture_kanji": "青森県",
   "prefecture_kana": "あおもりけん",
   "prefecture_kana_breakdown": "あお,もり,けん",
   "prefecture_romaji": "Aomori Ken",
   "latitude": 40.5,
   "longitude": 141.4833333
 },
 {
   "code": 22047,
   "name_kanji": "黒石市",
   "name_kana": "くろいしし",
   "name_kana_breakdown": "くろ,いし,し",
   "name_romaji": "Kuroishi Shi",
   "prefecture_kanji": "青森県",
   "prefecture_kana": "あおもりけん",
   "prefecture_kana_breakdown": "あお,もり,けん",
   "prefecture_romaji": "Aomori Ken",
   "latitude": 40.63333333,
   "longitude": 140.5833333
 },
 {
   "code": 22055,
   "name_kanji": "五所川原市",
   "name_kana": "ごしょがわらし",
   "name_kana_breakdown": "ご,しょ,がわ,ら,し",
   "name_romaji": "Goshogawara Shi",
   "prefecture_kanji": "青森県",
   "prefecture_kana": "あおもりけん",
   "prefecture_kana_breakdown": "あお,もり,けん",
   "prefecture_romaji": "Aomori Ken",
   "latitude": 40.8,
   "longitude": 140.4333333
 },
 {
   "code": 22063,
   "name_kanji": "十和田市",
   "name_kana": "とわだし",
   "name_kana_breakdown": "と,わ,だ,し",
   "name_romaji": "Towada Shi",
   "prefecture_kanji": "青森県",
   "prefecture_kana": "あおもりけん",
   "prefecture_kana_breakdown": "あお,もり,けん",
   "prefecture_romaji": "Aomori Ken",
   "latitude": 40.6,
   "longitude": 141.2
 },
 {
   "code": 22071,
   "name_kanji": "三沢市",
   "name_kana": "みさわし",
   "name_kana_breakdown": "み,さわ,し",
   "name_romaji": "Misawa Shi",
   "prefecture_kanji": "青森県",
   "prefecture_kana": "あおもりけん",
   "prefecture_kana_breakdown": "あお,もり,けん",
   "prefecture_romaji": "Aomori Ken",
   "latitude": 40.68333333,
   "longitude": 141.3666667
 },
 {
   "code": 22080,
   "name_kanji": "むつ市",
   "name_kana": "むつし",
   "name_kana_breakdown": "むつ,し",
   "name_romaji": "Mutsu Shi",
   "prefecture_kanji": "青森県",
   "prefecture_kana": "あおもりけん",
   "prefecture_kana_breakdown": "あお,もり,けん",
   "prefecture_romaji": "Aomori Ken",
   "latitude": 41.28333333,
   "longitude": 141.1833333
 },
 {
   "code": 22098,
   "name_kanji": "つがる市",
   "name_kana": "つがるし",
   "name_kana_breakdown": "つがる,し",
   "name_romaji": "Tsugaru Shi",
   "prefecture_kanji": "青森県",
   "prefecture_kana": "あおもりけん",
   "prefecture_kana_breakdown": "あお,もり,けん",
   "prefecture_romaji": "Aomori Ken",
   "latitude": 40.8,
   "longitude": 140.3666667
 },
 {
   "code": 22101,
   "name_kanji": "平川市",
   "name_kana": "ひらかわし",
   "name_kana_breakdown": "ひら,かわ,し",
   "name_romaji": "Hirakawa Shi",
   "prefecture_kanji": "青森県",
   "prefecture_kana": "あおもりけん",
   "prefecture_kana_breakdown": "あお,もり,けん",
   "prefecture_romaji": "Aomori Ken",
   "latitude": 40.58333333,
   "longitude": 140.55
 },
 {
   "code": 23019,
   "name_kanji": "平内町",
   "name_kana": "ひらないまち",
   "name_kana_breakdown": "ひら,ない,まち",
   "name_romaji": "Hiranai Machi",
   "prefecture_kanji": "青森県",
   "prefecture_kana": "あおもりけん",
   "prefecture_kana_breakdown": "あお,もり,けん",
   "prefecture_romaji": "Aomori Ken",
   "latitude": 40.91666667,
   "longitude": 140.95
 },
 {
   "code": 23035,
   "name_kanji": "今別町",
   "name_kana": "いまべつまち",
   "name_kana_breakdown": "いま,べつ,まち",
   "name_romaji": "Imabetsu Machi",
   "prefecture_kanji": "青森県",
   "prefecture_kana": "あおもりけん",
   "prefecture_kana_breakdown": "あお,もり,けん",
   "prefecture_romaji": "Aomori Ken",
   "latitude": 41.16666667,
   "longitude": 140.4666667
 },
 {
   "code": 23043,
   "name_kanji": "蓬田村",
   "name_kana": "よもぎたむら",
   "name_kana_breakdown": "よもぎ,た,むら",
   "name_romaji": "Yomogita Mura",
   "prefecture_kanji": "青森県",
   "prefecture_kana": "あおもりけん",
   "prefecture_kana_breakdown": "あお,もり,けん",
   "prefecture_romaji": "Aomori Ken",
   "latitude": 40.96666667,
   "longitude": 140.65
 },
 {
   "code": 23078,
   "name_kanji": "外ヶ浜町",
   "name_kana": "そとがはままち",
   "name_kana_breakdown": "そと,が,はま,まち",
   "name_romaji": "Sotogahama Machi",
   "prefecture_kanji": "青森県",
   "prefecture_kana": "あおもりけん",
   "prefecture_kana_breakdown": "あお,もり,けん",
   "prefecture_romaji": "Aomori Ken",
   "latitude": 41.03333333,
   "longitude": 140.6166667
 },
 {
   "code": 23213,
   "name_kanji": "鰺ヶ沢町",
   "name_kana": "あじがさわまち",
   "name_kana_breakdown": "あじ,が,さわ,まち",
   "name_romaji": "Ajigasawa Machi",
   "prefecture_kanji": "青森県",
   "prefecture_kana": "あおもりけん",
   "prefecture_kana_breakdown": "あお,もり,けん",
   "prefecture_romaji": "Aomori Ken",
   "latitude": 40.779917,
   "longitude": 140.208667
 },
 {
   "code": 23230,
   "name_kanji": "深浦町",
   "name_kana": "ふかうらまち",
   "name_kana_breakdown": "ふか,うら,まち",
   "name_romaji": "Fukaura Machi",
   "prefecture_kanji": "青森県",
   "prefecture_kana": "あおもりけん",
   "prefecture_kana_breakdown": "あお,もり,けん",
   "prefecture_romaji": "Aomori Ken",
   "latitude": 40.63333333,
   "longitude": 139.9166667
 },
 {
   "code": 23434,
   "name_kanji": "西目屋村",
   "name_kana": "にしめやむら",
   "name_kana_breakdown": "にし,め,や,むら",
   "name_romaji": "Nishimeya Mura",
   "prefecture_kanji": "青森県",
   "prefecture_kana": "あおもりけん",
   "prefecture_kana_breakdown": "あお,もり,けん",
   "prefecture_romaji": "Aomori Ken",
   "latitude": 40.56666667,
   "longitude": 140.2833333
 },
 {
   "code": 23612,
   "name_kanji": "藤崎町",
   "name_kana": "ふじさきまち",
   "name_kana_breakdown": "ふじ,さき,まち",
   "name_romaji": "Fujisaki Machi",
   "prefecture_kanji": "青森県",
   "prefecture_kana": "あおもりけん",
   "prefecture_kana_breakdown": "あお,もり,けん",
   "prefecture_romaji": "Aomori Ken",
   "latitude": 40.65,
   "longitude": 140.5
 },
 {
   "code": 23621,
   "name_kanji": "大鰐町",
   "name_kana": "おおわにまち",
   "name_kana_breakdown": "おお,わに,まち",
   "name_romaji": "Owani Machi",
   "prefecture_kanji": "青森県",
   "prefecture_kana": "あおもりけん",
   "prefecture_kana_breakdown": "あお,もり,けん",
   "prefecture_romaji": "Aomori Ken",
   "latitude": 40.51666667,
   "longitude": 140.5666667
 },
 {
   "code": 23671,
   "name_kanji": "田舎館村",
   "name_kana": "いなかだてむら",
   "name_kana_breakdown": "いな,か,だて,むら",
   "name_romaji": "Inakadate Mura",
   "prefecture_kanji": "青森県",
   "prefecture_kana": "あおもりけん",
   "prefecture_kana_breakdown": "あお,もり,けん",
   "prefecture_romaji": "Aomori Ken",
   "latitude": 40.61666667,
   "longitude": 140.55
 },
 {
   "code": 23817,
   "name_kanji": "板柳町",
   "name_kana": "いたやなぎまち",
   "name_kana_breakdown": "いた,やなぎ,まち",
   "name_romaji": "Itayanagi Machi",
   "prefecture_kanji": "青森県",
   "prefecture_kana": "あおもりけん",
   "prefecture_kana_breakdown": "あお,もり,けん",
   "prefecture_romaji": "Aomori Ken",
   "latitude": 40.68333333,
   "longitude": 140.45
 },
 {
   "code": 23841,
   "name_kanji": "鶴田町",
   "name_kana": "つるたまち",
   "name_kana_breakdown": "つる,た,まち",
   "name_romaji": "Tsuruta Machi",
   "prefecture_kanji": "青森県",
   "prefecture_kana": "あおもりけん",
   "prefecture_kana_breakdown": "あお,もり,けん",
   "prefecture_romaji": "Aomori Ken",
   "latitude": 40.75,
   "longitude": 140.4166667
 },
 {
   "code": 23876,
   "name_kanji": "中泊町",
   "name_kana": "なかどまりまち",
   "name_kana_breakdown": "なか,どまり,まち",
   "name_romaji": "Nakadomari Machi",
   "prefecture_kanji": "青森県",
   "prefecture_kana": "あおもりけん",
   "prefecture_kana_breakdown": "あお,もり,けん",
   "prefecture_romaji": "Aomori Ken",
   "latitude": 40.95,
   "longitude": 140.4333333
 },
 {
   "code": 24015,
   "name_kanji": "野辺地町",
   "name_kana": "のへじまち",
   "name_kana_breakdown": "の,へ,じ,まち",
   "name_romaji": "Noheji Machi",
   "prefecture_kanji": "青森県",
   "prefecture_kana": "あおもりけん",
   "prefecture_kana_breakdown": "あお,もり,けん",
   "prefecture_romaji": "Aomori Ken",
   "latitude": 40.85,
   "longitude": 141.1166667
 },
 {
   "code": 24023,
   "name_kanji": "七戸町",
   "name_kana": "しちのへまち",
   "name_kana_breakdown": "しちの,へ,まち",
   "name_kana_notes": "Hidden particle (の): しち,の,へ,まち",
   "name_romaji": "Shichinohe Machi",
   "prefecture_kanji": "青森県",
   "prefecture_kana": "あおもりけん",
   "prefecture_kana_breakdown": "あお,もり,けん",
   "prefecture_romaji": "Aomori Ken",
   "latitude": 40.73333333,
   "longitude": 141.15
 },
 {
   "code": 24058,
   "name_kanji": "六戸町",
   "name_kana": "ろくのへまち",
   "name_kana_breakdown": "ろくの,へ,まち",
   "name_kana_notes": "Hidden particle (の): ろく,の,へ,まち",
   "name_romaji": "Rokunohe Machi",
   "prefecture_kanji": "青森県",
   "prefecture_kana": "あおもりけん",
   "prefecture_kana_breakdown": "あお,もり,けん",
   "prefecture_romaji": "Aomori Ken",
   "latitude": 40.6,
   "longitude": 141.3166667
 },
 {
   "code": 24066,
   "name_kanji": "横浜町",
   "name_kana": "よこはままち",
   "name_kana_breakdown": "よこ,はま,まち",
   "name_romaji": "Yokohama Machi",
   "prefecture_kanji": "青森県",
   "prefecture_kana": "あおもりけん",
   "prefecture_kana_breakdown": "あお,もり,けん",
   "prefecture_romaji": "Aomori Ken",
   "latitude": 41.08333333,
   "longitude": 141.2333333
 },
 {
   "code": 24082,
   "name_kanji": "東北町",
   "name_kana": "とうほくまち",
   "name_kana_breakdown": "とう,ほく,まち",
   "name_romaji": "Tohoku Machi",
   "prefecture_kanji": "青森県",
   "prefecture_kana": "あおもりけん",
   "prefecture_kana_breakdown": "あお,もり,けん",
   "prefecture_romaji": "Aomori Ken",
   "latitude": 40.71666667,
   "longitude": 141.25
 },
 {
   "code": 24112,
   "name_kanji": "六ヶ所村",
   "name_kana": "ろっかしょむら",
   "name_kana_breakdown": "ろっ,か,しょ,むら",
   "name_romaji": "Rokkasho Mura",
   "prefecture_kanji": "青森県",
   "prefecture_kana": "あおもりけん",
   "prefecture_kana_breakdown": "あお,もり,けん",
   "prefecture_romaji": "Aomori Ken",
   "latitude": 40.96666667,
   "longitude": 141.3666667
 },
 {
   "code": 24121,
   "name_kanji": "おいらせ町",
   "name_kana": "おいらせちょう",
   "name_kana_breakdown": "おいらせ,ちょう",
   "name_romaji": "Oirase Cho",
   "prefecture_kanji": "青森県",
   "prefecture_kana": "あおもりけん",
   "prefecture_kana_breakdown": "あお,もり,けん",
   "prefecture_romaji": "Aomori Ken",
   "latitude": 40.58333333,
   "longitude": 141.3833333
 },
 {
   "code": 24236,
   "name_kanji": "大間町",
   "name_kana": "おおままち",
   "name_kana_breakdown": "おお,ま,まち",
   "name_romaji": "Oma Machi",
   "prefecture_kanji": "青森県",
   "prefecture_kana": "あおもりけん",
   "prefecture_kana_breakdown": "あお,もり,けん",
   "prefecture_romaji": "Aomori Ken",
   "latitude": 41.51666667,
   "longitude": 140.9
 },
 {
   "code": 24244,
   "name_kanji": "東通村",
   "name_kana": "ひがしどおりむら",
   "name_kana_breakdown": "ひがし,どおり,むら",
   "name_romaji": "Higashidori Mura",
   "prefecture_kanji": "青森県",
   "prefecture_kana": "あおもりけん",
   "prefecture_kana_breakdown": "あお,もり,けん",
   "prefecture_romaji": "Aomori Ken",
   "latitude": 41.26666667,
   "longitude": 141.3166667
 },
 {
   "code": 24252,
   "name_kanji": "風間浦村",
   "name_kana": "かざまうらむら",
   "name_kana_breakdown": "かざ,ま,うら,むら",
   "name_romaji": "Kazamaura Mura",
   "prefecture_kanji": "青森県",
   "prefecture_kana": "あおもりけん",
   "prefecture_kana_breakdown": "あお,もり,けん",
   "prefecture_romaji": "Aomori Ken",
   "latitude": 41.48333333,
   "longitude": 140.9833333
 },
 {
   "code": 24261,
   "name_kanji": "佐井村",
   "name_kana": "さいむら",
   "name_kana_breakdown": "さ,い,むら",
   "name_romaji": "Sai Mura",
   "prefecture_kanji": "青森県",
   "prefecture_kana": "あおもりけん",
   "prefecture_kana_breakdown": "あお,もり,けん",
   "prefecture_romaji": "Aomori Ken",
   "latitude": 41.41666667,
   "longitude": 140.85
 },
 {
   "code": 24414,
   "name_kanji": "三戸町",
   "name_kana": "さんのへまち",
   "name_kana_breakdown": "さんの,へ,まち",
   "name_kana_notes": "Hidden particle (の): さん,の,へ,まち",
   "name_romaji": "Sannohe Machi",
   "prefecture_kanji": "青森県",
   "prefecture_kana": "あおもりけん",
   "prefecture_kana_breakdown": "あお,もり,けん",
   "prefecture_romaji": "Aomori Ken",
   "latitude": 40.36666667,
   "longitude": 141.25
 },
 {
   "code": 24422,
   "name_kanji": "五戸町",
   "name_kana": "ごのへまち",
   "name_kana_breakdown": "ごの,へ,まち",
   "name_kana_notes": "Hidden particle (の): ご,の,へ,まち",
   "name_romaji": "Gonohe Machi",
   "prefecture_kanji": "青森県",
   "prefecture_kana": "あおもりけん",
   "prefecture_kana_breakdown": "あお,もり,けん",
   "prefecture_romaji": "Aomori Ken",
   "latitude": 40.51666667,
   "longitude": 141.3
 },
 {
   "code": 24431,
   "name_kanji": "田子町",
   "name_kana": "たっこまち",
   "name_kana_breakdown": "たっ,こ,まち",
   "name_romaji": "Takko Machi",
   "prefecture_kanji": "青森県",
   "prefecture_kana": "あおもりけん",
   "prefecture_kana_breakdown": "あお,もり,けん",
   "prefecture_romaji": "Aomori Ken",
   "latitude": 40.33333333,
   "longitude": 141.15
 },
 {
   "code": 24457,
   "name_kanji": "南部町",
   "name_kana": "なんぶちょう",
   "name_kana_breakdown": "なん,ぶ,ちょう",
   "name_romaji": "Nanbu Cho",
   "prefecture_kanji": "青森県",
   "prefecture_kana": "あおもりけん",
   "prefecture_kana_breakdown": "あお,もり,けん",
   "prefecture_romaji": "Aomori Ken",
   "latitude": 40.46666667,
   "longitude": 141.3666667
 },
 {
   "code": 24465,
   "name_kanji": "階上町",
   "name_kana": "はしかみちょう",
   "name_kana_breakdown": "はし,かみ,ちょう",
   "name_romaji": "Hashikami Cho",
   "prefecture_kanji": "青森県",
   "prefecture_kana": "あおもりけん",
   "prefecture_kana_breakdown": "あお,もり,けん",
   "prefecture_romaji": "Aomori Ken",
   "latitude": 40.45,
   "longitude": 141.6166667
 },
 {
   "code": 24503,
   "name_kanji": "新郷村",
   "name_kana": "しんごうむら",
   "name_kana_breakdown": "しん,ごう,むら",
   "name_romaji": "Shingo Mura",
   "prefecture_kanji": "青森県",
   "prefecture_kana": "あおもりけん",
   "prefecture_kana_breakdown": "あお,もり,けん",
   "prefecture_romaji": "Aomori Ken",
   "latitude": 40.45,
   "longitude": 141.1666667
 },
 {
   "code": 32018,
   "name_kanji": "盛岡市",
   "name_kana": "もりおかし",
   "name_kana_breakdown": "もり,おか,し",
   "name_romaji": "Morioka Shi",
   "prefecture_kanji": "岩手県",
   "prefecture_kana": "いわてけん",
   "prefecture_kana_breakdown": "いわ,て,けん",
   "prefecture_romaji": "Iwate Ken",
   "latitude": 39.7,
   "longitude": 141.15
 },
 {
   "code": 32026,
   "name_kanji": "宮古市",
   "name_kana": "みやこし",
   "name_kana_breakdown": "みや,こ,し",
   "name_romaji": "Miyako Shi",
   "prefecture_kanji": "岩手県",
   "prefecture_kana": "いわてけん",
   "prefecture_kana_breakdown": "いわ,て,けん",
   "prefecture_romaji": "Iwate Ken",
   "latitude": 39.63333333,
   "longitude": 141.95
 },
 {
   "code": 32034,
   "name_kanji": "大船渡市",
   "name_kana": "おおふなとし",
   "name_kana_breakdown": "おお,ふな,と,し",
   "name_romaji": "Ofunato Shi",
   "prefecture_kanji": "岩手県",
   "prefecture_kana": "いわてけん",
   "prefecture_kana_breakdown": "いわ,て,けん",
   "prefecture_romaji": "Iwate Ken",
   "latitude": 39.06666667,
   "longitude": 141.7
 },
 {
   "code": 32051,
   "name_kanji": "花巻市",
   "name_kana": "はなまきし",
   "name_kana_breakdown": "はな,まき,し",
   "name_romaji": "Hanamaki Shi",
   "prefecture_kanji": "岩手県",
   "prefecture_kana": "いわてけん",
   "prefecture_kana_breakdown": "いわ,て,けん",
   "prefecture_romaji": "Iwate Ken",
   "latitude": 39.38333333,
   "longitude": 141.1166667
 },
 {
   "code": 32069,
   "name_kanji": "北上市",
   "name_kana": "きたかみし",
   "name_kana_breakdown": "きた,かみ,し",
   "name_romaji": "Kitakami Shi",
   "prefecture_kanji": "岩手県",
   "prefecture_kana": "いわてけん",
   "prefecture_kana_breakdown": "いわ,て,けん",
   "prefecture_romaji": "Iwate Ken",
   "latitude": 39.28333333,
   "longitude": 141.1
 },
 {
   "code": 32077,
   "name_kanji": "久慈市",
   "name_kana": "くじし",
   "name_kana_breakdown": "く,じ,し",
   "name_romaji": "Kuji Shi",
   "prefecture_kanji": "岩手県",
   "prefecture_kana": "いわてけん",
   "prefecture_kana_breakdown": "いわ,て,けん",
   "prefecture_romaji": "Iwate Ken",
   "latitude": 40.18333333,
   "longitude": 141.7666667
 },
 {
   "code": 32085,
   "name_kanji": "遠野市",
   "name_kana": "とおのし",
   "name_kana_breakdown": "とお,の,し",
   "name_romaji": "Tono Shi",
   "prefecture_kanji": "岩手県",
   "prefecture_kana": "いわてけん",
   "prefecture_kana_breakdown": "いわ,て,けん",
   "prefecture_romaji": "Iwate Ken",
   "latitude": 39.31666667,
   "longitude": 141.5333333
 },
 {
   "code": 32093,
   "name_kanji": "一関市",
   "name_kana": "いちのせきし",
   "name_kana_breakdown": "いちの,せき,し",
   "name_kana_notes": "Hidden particle (の): いち,の,せき,し",
   "name_romaji": "Ichinoseki Shi",
   "prefecture_kanji": "岩手県",
   "prefecture_kana": "いわてけん",
   "prefecture_kana_breakdown": "いわ,て,けん",
   "prefecture_romaji": "Iwate Ken",
   "latitude": 38.93333333,
   "longitude": 141.1166667
 },
 {
   "code": 32107,
   "name_kanji": "陸前高田市",
   "name_kana": "りくぜんたかたし",
   "name_kana_breakdown": "りく,ぜん,たか,た,し",
   "name_romaji": "Rikuzentakata Shi",
   "prefecture_kanji": "岩手県",
   "prefecture_kana": "いわてけん",
   "prefecture_kana_breakdown": "いわ,て,けん",
   "prefecture_romaji": "Iwate Ken",
   "latitude": 39,
   "longitude": 141.6166667
 },
 {
   "code": 32115,
   "name_kanji": "釜石市",
   "name_kana": "かまいしし",
   "name_kana_breakdown": "かま,いし,し,",
   "name_romaji": "Kamaishi Shi",
   "prefecture_kanji": "岩手県",
   "prefecture_kana": "いわてけん",
   "prefecture_kana_breakdown": "いわ,て,けん",
   "prefecture_romaji": "Iwate Ken",
   "latitude": 39.26666667,
   "longitude": 141.8833333
 },
 {
   "code": 32131,
   "name_kanji": "二戸市",
   "name_kana": "にのへし",
   "name_kana_breakdown": "にの,へ,し",
   "name_kana_notes": "Hidden particle (の): に,の,へ,し",
   "name_romaji": "Ninohe Shi",
   "prefecture_kanji": "岩手県",
   "prefecture_kana": "いわてけん",
   "prefecture_kana_breakdown": "いわ,て,けん",
   "prefecture_romaji": "Iwate Ken",
   "latitude": 40.26666667,
   "longitude": 141.3
 },
 {
   "code": 32140,
   "name_kanji": "八幡平市",
   "name_kana": "はちまんたいし",
   "name_kana_breakdown": "はち,まん,たい,し",
   "name_romaji": "Hachimantai Shi",
   "prefecture_kanji": "岩手県",
   "prefecture_kana": "いわてけん",
   "prefecture_kana_breakdown": "いわ,て,けん",
   "prefecture_romaji": "Iwate Ken",
   "latitude": 39.91666667,
   "longitude": 141.0833333
 },
 {
   "code": 32158,
   "name_kanji": "奥州市",
   "name_kana": "おうしゅうし",
   "name_kana_breakdown": "おう,しゅう,し",
   "name_romaji": "Oshu Shi",
   "prefecture_kanji": "岩手県",
   "prefecture_kana": "いわてけん",
   "prefecture_kana_breakdown": "いわ,て,けん",
   "prefecture_romaji": "Iwate Ken",
   "latitude": 39.13333333,
   "longitude": 141.1333333
 },
 {
   "code": 32166,
   "name_kanji": "滝沢市",
   "name_kana": "たきざわし",
   "name_kana_breakdown": "たき,ざわ,し",
   "name_romaji": "Takizawa Shi",
   "prefecture_kanji": "岩手県",
   "prefecture_kana": "いわてけん",
   "prefecture_kana_breakdown": "いわ,て,けん",
   "prefecture_romaji": "Iwate Ken",
   "latitude": 39.73333333,
   "longitude": 141.0666667
 },
 {
   "code": 33014,
   "name_kanji": "雫石町",
   "name_kana": "しずくいしちょう",
   "name_kana_breakdown": "しずく,いし,ちょう",
   "name_romaji": "Shizukuishi Cho",
   "prefecture_kanji": "岩手県",
   "prefecture_kana": "いわてけん",
   "prefecture_kana_breakdown": "いわ,て,けん",
   "prefecture_romaji": "Iwate Ken",
   "latitude": 39.68333333,
   "longitude": 140.9666667
 },
 {
   "code": 33022,
   "name_kanji": "葛巻町",
   "name_kana": "くずまきまち",
   "name_kana_breakdown": "くず,まき,まち",
   "name_romaji": "Kuzumaki Machi",
   "prefecture_kanji": "岩手県",
   "prefecture_kana": "いわてけん",
   "prefecture_kana_breakdown": "いわ,て,けん",
   "prefecture_romaji": "Iwate Ken",
   "latitude": 40.03333333,
   "longitude": 141.4333333
 },
 {
   "code": 33031,
   "name_kanji": "岩手町",
   "name_kana": "いわてまち",
   "name_kana_breakdown": "いわ,て,まち",
   "name_romaji": "Iwate Machi",
   "prefecture_kanji": "岩手県",
   "prefecture_kana": "いわてけん",
   "prefecture_kana_breakdown": "いわ,て,けん",
   "prefecture_romaji": "Iwate Ken",
   "latitude": 39.96666667,
   "longitude": 141.2
 },
 {
   "code": 33219,
   "name_kanji": "紫波町",
   "name_kana": "しわちょう",
   "name_kana_breakdown": "し,わ,ちょう",
   "name_romaji": "Shiwa Cho",
   "prefecture_kanji": "岩手県",
   "prefecture_kana": "いわてけん",
   "prefecture_kana_breakdown": "いわ,て,けん",
   "prefecture_romaji": "Iwate Ken",
   "latitude": 39.55,
   "longitude": 141.1666667
 },
 {
   "code": 33227,
   "name_kanji": "矢巾町",
   "name_kana": "やはばちょう",
   "name_kana_breakdown": "や,はば,ちょう",
   "name_romaji": "Yahaba Cho",
   "prefecture_kanji": "岩手県",
   "prefecture_kana": "いわてけん",
   "prefecture_kana_breakdown": "いわ,て,けん",
   "prefecture_romaji": "Iwate Ken",
   "latitude": 39.6,
   "longitude": 141.1333333
 },
 {
   "code": 33669,
   "name_kanji": "西和賀町",
   "name_kana": "にしわがまち",
   "name_kana_breakdown": "にし,わ,が,まち",
   "name_romaji": "Nishiwaga Machi",
   "prefecture_kanji": "岩手県",
   "prefecture_kana": "いわてけん",
   "prefecture_kana_breakdown": "いわ,て,けん",
   "prefecture_romaji": "Iwate Ken",
   "latitude": 39.31666667,
   "longitude": 140.7666667
 },
 {
   "code": 33812,
   "name_kanji": "金ケ崎町",
   "name_kana": "かねがさきちょう",
   "name_kana_breakdown": "かね,が,さき,ちょう",
   "name_romaji": "Kanegasaki Cho",
   "prefecture_kanji": "岩手県",
   "prefecture_kana": "いわてけん",
   "prefecture_kana_breakdown": "いわ,て,けん",
   "prefecture_romaji": "Iwate Ken",
   "latitude": 39.18333333,
   "longitude": 141.1
 },
 {
   "code": 34029,
   "name_kanji": "平泉町",
   "name_kana": "ひらいずみちょう",
   "name_kana_breakdown": "ひら,いずみ,ちょう",
   "name_romaji": "Hiraizumi Cho",
   "prefecture_kanji": "岩手県",
   "prefecture_kana": "いわてけん",
   "prefecture_kana_breakdown": "いわ,て,けん",
   "prefecture_romaji": "Iwate Ken",
   "latitude": 38.98333333,
   "longitude": 141.1
 },
 {
   "code": 34410,
   "name_kanji": "住田町",
   "name_kana": "すみたちょう",
   "name_kana_breakdown": "すみ,た,ちょう",
   "name_romaji": "Sumita Cho",
   "prefecture_kanji": "岩手県",
   "prefecture_kana": "いわてけん",
   "prefecture_kana_breakdown": "いわ,て,けん",
   "prefecture_romaji": "Iwate Ken",
   "latitude": 39.13333333,
   "longitude": 141.5666667
 },
 {
   "code": 34614,
   "name_kanji": "大槌町",
   "name_kana": "おおつちちょう",
   "name_kana_breakdown": "おお,つち,ちょう",
   "name_romaji": "Otsuchi Cho",
   "prefecture_kanji": "岩手県",
   "prefecture_kana": "いわてけん",
   "prefecture_kana_breakdown": "いわ,て,けん",
   "prefecture_romaji": "Iwate Ken",
   "latitude": 39.35,
   "longitude": 141.9
 },
 {
   "code": 34827,
   "name_kanji": "山田町",
   "name_kana": "やまだまち",
   "name_kana_breakdown": "やま,だ,まち",
   "name_romaji": "Yamada Machi",
   "prefecture_kanji": "岩手県",
   "prefecture_kana": "いわてけん",
   "prefecture_kana_breakdown": "いわ,て,けん",
   "prefecture_romaji": "Iwate Ken",
   "latitude": 39.46666667,
   "longitude": 141.9333333
 },
 {
   "code": 34835,
   "name_kanji": "岩泉町",
   "name_kana": "いわいずみちょう",
   "name_kana_breakdown": "いわ,いずみ,ちょう",
   "name_romaji": "Iwaizumi Cho",
   "prefecture_kanji": "岩手県",
   "prefecture_kana": "いわてけん",
   "prefecture_kana_breakdown": "いわ,て,けん",
   "prefecture_romaji": "Iwate Ken",
   "latitude": 39.83333333,
   "longitude": 141.7833333
 },
 {
   "code": 34843,
   "name_kanji": "田野畑村",
   "name_kana": "たのはたむら",
   "name_kana_breakdown": "た,の,はた,むら",
   "name_romaji": "Tanohata Mura",
   "prefecture_kanji": "岩手県",
   "prefecture_kana": "いわてけん",
   "prefecture_kana_breakdown": "いわ,て,けん",
   "prefecture_romaji": "Iwate Ken",
   "latitude": 39.91666667,
   "longitude": 141.8833333
 },
 {
   "code": 34851,
   "name_kanji": "普代村",
   "name_kana": "ふだいむら",
   "name_kana_breakdown": "ふ,だい,むら",
   "name_romaji": "Fudai Mura",
   "prefecture_kanji": "岩手県",
   "prefecture_kana": "いわてけん",
   "prefecture_kana_breakdown": "いわ,て,けん",
   "prefecture_romaji": "Iwate Ken",
   "latitude": 40,
   "longitude": 141.8833333
 },
 {
   "code": 35017,
   "name_kanji": "軽米町",
   "name_kana": "かるまいまち",
   "name_kana_breakdown": "かる,まい,まち",
   "name_romaji": "Karumai Machi",
   "prefecture_kanji": "岩手県",
   "prefecture_kana": "いわてけん",
   "prefecture_kana_breakdown": "いわ,て,けん",
   "prefecture_romaji": "Iwate Ken",
   "latitude": 40.31666667,
   "longitude": 141.45
 },
 {
   "code": 35033,
   "name_kanji": "野田村",
   "name_kana": "のだむら",
   "name_kana_breakdown": "の,だ,むら",
   "name_romaji": "Noda Mura",
   "prefecture_kanji": "岩手県",
   "prefecture_kana": "いわてけん",
   "prefecture_kana_breakdown": "いわ,て,けん",
   "prefecture_romaji": "Iwate Ken",
   "latitude": 40.1,
   "longitude": 141.8166667
 },
 {
   "code": 35068,
   "name_kanji": "九戸村",
   "name_kana": "くのへむら",
   "name_kana_breakdown": "くの,へ,むら",
   "name_kana_notes": "Hidden particle (の): く,の,へ,むら",
   "name_romaji": "Kunohe Mura",
   "prefecture_kanji": "岩手県",
   "prefecture_kana": "いわてけん",
   "prefecture_kana_breakdown": "いわ,て,けん",
   "prefecture_romaji": "Iwate Ken",
   "latitude": 40.2,
   "longitude": 141.4166667
 },
 {
   "code": 35076,
   "name_kanji": "洋野町",
   "name_kana": "ひろのちょう",
   "name_kana_breakdown": "ひろ,の,ちょう",
   "name_romaji": "Hirono Cho",
   "prefecture_kanji": "岩手県",
   "prefecture_kana": "いわてけん",
   "prefecture_kana_breakdown": "いわ,て,けん",
   "prefecture_romaji": "Iwate Ken",
   "latitude": 40.4,
   "longitude": 141.7166667
 },
 {
   "code": 35246,
   "name_kanji": "一戸町",
   "name_kana": "いちのへまち",
   "name_kana_breakdown": "いちの,へ,まち",
   "name_kana_notes": "Hidden particle (の): いち,の,へ,まち",
   "name_romaji": "Ichinohe Machi",
   "prefecture_kanji": "岩手県",
   "prefecture_kana": "いわてけん",
   "prefecture_kana_breakdown": "いわ,て,けん",
   "prefecture_romaji": "Iwate Ken",
   "latitude": 40.2,
   "longitude": 141.2833333
 },
 {
   "code": 41009,
   "name_kanji": "仙台市",
   "name_kana": "せんだいし",
   "name_kana_breakdown": "せん,だい,し",
   "name_romaji": "Sendai Shi",
   "prefecture_kanji": "宮城県",
   "prefecture_kana": "みやぎけん",
   "prefecture_kana_breakdown": "みや,ぎ,けん",
   "prefecture_romaji": "Miyagi Ken",
   "latitude": 38.26666667,
   "longitude": 140.8666667
 },
 {
   "code": 42021,
   "name_kanji": "石巻市",
   "name_kana": "いしのまきし",
   "name_kana_breakdown": "いしの,まき,し",
   "name_kana_notes": "Hidden particle (の): いし,の,まき,し",
   "name_romaji": "Ishinomaki Shi",
   "prefecture_kanji": "宮城県",
   "prefecture_kana": "みやぎけん",
   "prefecture_kana_breakdown": "みや,ぎ,けん",
   "prefecture_romaji": "Miyagi Ken",
   "latitude": 38.41666667,
   "longitude": 141.3
 },
 {
   "code": 42030,
   "name_kanji": "塩竈市",
   "name_kana": "しおがまし",
   "name_kana_breakdown": "しお,がま,し",
   "name_romaji": "Shiogama Shi",
   "prefecture_kanji": "宮城県",
   "prefecture_kana": "みやぎけん",
   "prefecture_kana_breakdown": "みや,ぎ,けん",
   "prefecture_romaji": "Miyagi Ken",
   "latitude": 38.3,
   "longitude": 141.0166667
 },
 {
   "code": 42056,
   "name_kanji": "気仙沼市",
   "name_kana": "けせんぬまし",
   "name_kana_breakdown": "け,せん,ぬま,し",
   "name_romaji": "Kesennuma Shi",
   "prefecture_kanji": "宮城県",
   "prefecture_kana": "みやぎけん",
   "prefecture_kana_breakdown": "みや,ぎ,けん",
   "prefecture_romaji": "Miyagi Ken",
   "latitude": 38.9,
   "longitude": 141.5666667
 },
 {
   "code": 42064,
   "name_kanji": "白石市",
   "name_kana": "しろいしし",
   "name_kana_breakdown": "しろ,いし,し",
   "name_romaji": "Shiroishi Shi",
   "prefecture_kanji": "宮城県",
   "prefecture_kana": "みやぎけん",
   "prefecture_kana_breakdown": "みや,ぎ,けん",
   "prefecture_romaji": "Miyagi Ken",
   "latitude": 38,
   "longitude": 140.6166667
 },
 {
   "code": 42072,
   "name_kanji": "名取市",
   "name_kana": "なとりし",
   "name_kana_breakdown": "な,とり,し",
   "name_romaji": "Natori Shi",
   "prefecture_kanji": "宮城県",
   "prefecture_kana": "みやぎけん",
   "prefecture_kana_breakdown": "みや,ぎ,けん",
   "prefecture_romaji": "Miyagi Ken",
   "latitude": 38.16666667,
   "longitude": 140.8833333
 },
 {
   "code": 42081,
   "name_kanji": "角田市",
   "name_kana": "かくだし",
   "name_kana_breakdown": "かく,だ,し",
   "name_romaji": "Kakuda Shi",
   "prefecture_kanji": "宮城県",
   "prefecture_kana": "みやぎけん",
   "prefecture_kana_breakdown": "みや,ぎ,けん",
   "prefecture_romaji": "Miyagi Ken",
   "latitude": 37.96666667,
   "longitude": 140.7666667
 },
 {
   "code": 42099,
   "name_kanji": "多賀城市",
   "name_kana": "たがじょうし",
   "name_kana_breakdown": "た,が,じょう,し",
   "name_romaji": "Tagajo Shi",
   "prefecture_kanji": "宮城県",
   "prefecture_kana": "みやぎけん",
   "prefecture_kana_breakdown": "みや,ぎ,けん",
   "prefecture_romaji": "Miyagi Ken",
   "latitude": 38.28333333,
   "longitude": 141
 },
 {
   "code": 42111,
   "name_kanji": "岩沼市",
   "name_kana": "いわぬまし",
   "name_kana_breakdown": "いわ,ぬま,し",
   "name_romaji": "Iwanuma Shi",
   "prefecture_kanji": "宮城県",
   "prefecture_kana": "みやぎけん",
   "prefecture_kana_breakdown": "みや,ぎ,けん",
   "prefecture_romaji": "Miyagi Ken",
   "latitude": 38.1,
   "longitude": 140.8666667
 },
 {
   "code": 42129,
   "name_kanji": "登米市",
   "name_kana": "とめし",
   "name_kana_breakdown": "と,め,し",
   "name_romaji": "Tome Shi",
   "prefecture_kanji": "宮城県",
   "prefecture_kana": "みやぎけん",
   "prefecture_kana_breakdown": "みや,ぎ,けん",
   "prefecture_romaji": "Miyagi Ken",
   "latitude": 38.68333333,
   "longitude": 141.1833333
 },
 {
   "code": 42137,
   "name_kanji": "栗原市",
   "name_kana": "くりはらし",
   "name_kana_breakdown": "くり,はら,し",
   "name_romaji": "Kurihara Shi",
   "prefecture_kanji": "宮城県",
   "prefecture_kana": "みやぎけん",
   "prefecture_kana_breakdown": "みや,ぎ,けん",
   "prefecture_romaji": "Miyagi Ken",
   "latitude": 38.71666667,
   "longitude": 141.0166667
 },
 {
   "code": 42145,
   "name_kanji": "東松島市",
   "name_kana": "ひがしまつしまし",
   "name_kana_breakdown": "ひがし,まつ,しま,し",
   "name_romaji": "Higashimatsushima Shi",
   "prefecture_kanji": "宮城県",
   "prefecture_kana": "みやぎけん",
   "prefecture_kana_breakdown": "みや,ぎ,けん",
   "prefecture_romaji": "Miyagi Ken",
   "latitude": 38.41666667,
   "longitude": 141.2
 },
 {
   "code": 42153,
   "name_kanji": "大崎市",
   "name_kana": "おおさきし",
   "name_kana_breakdown": "おお,さき,し",
   "name_romaji": "Osaki Shi",
   "prefecture_kanji": "宮城県",
   "prefecture_kana": "みやぎけん",
   "prefecture_kana_breakdown": "みや,ぎ,けん",
   "prefecture_romaji": "Miyagi Ken",
   "latitude": 38.56666667,
   "longitude": 140.95
 },
 {
   "code": 42161,
   "name_kanji": "富谷市",
   "name_kana": "とみやし",
   "name_kana_breakdown": "とみ,や,し",
   "name_romaji": "Tomiya Shi",
   "prefecture_kanji": "宮城県",
   "prefecture_kana": "みやぎけん",
   "prefecture_kana_breakdown": "みや,ぎ,けん",
   "prefecture_romaji": "Miyagi Ken",
   "latitude": 38.38333333,
   "longitude": 140.8833333
 },
 {
   "code": 43010,
   "name_kanji": "蔵王町",
   "name_kana": "ざおうまち",
   "name_kana_breakdown": "ざ,おう,まち",
   "name_romaji": "Zao Machi",
   "prefecture_kanji": "宮城県",
   "prefecture_kana": "みやぎけん",
   "prefecture_kana_breakdown": "みや,ぎ,けん",
   "prefecture_romaji": "Miyagi Ken",
   "latitude": 38.08333333,
   "longitude": 140.65
 },
 {
   "code": 43028,
   "name_kanji": "七ヶ宿町",
   "name_kana": "しちかしゅくまち",
   "name_kana_breakdown": "しち,か,しゅく,まち",
   "name_romaji": "Shichikashuku Machi",
   "prefecture_kanji": "宮城県",
   "prefecture_kana": "みやぎけん",
   "prefecture_kana_breakdown": "みや,ぎ,けん",
   "prefecture_romaji": "Miyagi Ken",
   "latitude": 37.992972,
   "longitude": 140.441583
 },
 {
   "code": 43214,
   "name_kanji": "大河原町",
   "name_kana": "おおがわらまち",
   "name_kana_breakdown": "おお,がわ,ら,まち",
   "name_romaji": "Ogawara Machi",
   "prefecture_kanji": "宮城県",
   "prefecture_kana": "みやぎけん",
   "prefecture_kana_breakdown": "みや,ぎ,けん",
   "prefecture_romaji": "Miyagi Ken",
   "latitude": 38.03333333,
   "longitude": 140.7166667
 },
 {
   "code": 43222,
   "name_kanji": "村田町",
   "name_kana": "むらたまち",
   "name_kana_breakdown": "むら,た,まち",
   "name_romaji": "Murata Machi",
   "prefecture_kanji": "宮城県",
   "prefecture_kana": "みやぎけん",
   "prefecture_kana_breakdown": "みや,ぎ,けん",
   "prefecture_romaji": "Miyagi Ken",
   "latitude": 38.11666667,
   "longitude": 140.7166667
 },
 {
   "code": 43231,
   "name_kanji": "柴田町",
   "name_kana": "しばたまち",
   "name_kana_breakdown": "しば,た,まち",
   "name_romaji": "Shibata Machi",
   "prefecture_kanji": "宮城県",
   "prefecture_kana": "みやぎけん",
   "prefecture_kana_breakdown": "みや,ぎ,けん",
   "prefecture_romaji": "Miyagi Ken",
   "latitude": 38.05,
   "longitude": 140.75
 },
 {
   "code": 43249,
   "name_kanji": "川崎町",
   "name_kana": "かわさきまち",
   "name_kana_breakdown": "かわ,さき,まち",
   "name_romaji": "Kawasaki Machi",
   "prefecture_kanji": "宮城県",
   "prefecture_kana": "みやぎけん",
   "prefecture_kana_breakdown": "みや,ぎ,けん",
   "prefecture_romaji": "Miyagi Ken",
   "latitude": 38.16666667,
   "longitude": 140.6333333
 },
 {
   "code": 43419,
   "name_kanji": "丸森町",
   "name_kana": "まるもりまち",
   "name_kana_breakdown": "まる,もり,まち",
   "name_romaji": "Marumori Machi",
   "prefecture_kanji": "宮城県",
   "prefecture_kana": "みやぎけん",
   "prefecture_kana_breakdown": "みや,ぎ,けん",
   "prefecture_romaji": "Miyagi Ken",
   "latitude": 37.9,
   "longitude": 140.75
 },
 {
   "code": 43613,
   "name_kanji": "亘理町",
   "name_kana": "わたりちょう",
   "name_kana_breakdown": "わた,り,ちょう",
   "name_romaji": "Watari Cho",
   "prefecture_kanji": "宮城県",
   "prefecture_kana": "みやぎけん",
   "prefecture_kana_breakdown": "みや,ぎ,けん",
   "prefecture_romaji": "Miyagi Ken",
   "latitude": 38.03333333,
   "longitude": 140.85
 },
 {
   "code": 43621,
   "name_kanji": "山元町",
   "name_kana": "やまもとちょう",
   "name_kana_breakdown": "やま,もと,ちょう",
   "name_romaji": "Yamamoto Cho",
   "prefecture_kanji": "宮城県",
   "prefecture_kana": "みやぎけん",
   "prefecture_kana_breakdown": "みや,ぎ,けん",
   "prefecture_romaji": "Miyagi Ken",
   "latitude": 37.95,
   "longitude": 140.8666667
 },
 {
   "code": 44016,
   "name_kanji": "松島町",
   "name_kana": "まつしままち",
   "name_kana_breakdown": "まつ,しま,まち",
   "name_romaji": "Matsushima Machi",
   "prefecture_kanji": "宮城県",
   "prefecture_kana": "みやぎけん",
   "prefecture_kana_breakdown": "みや,ぎ,けん",
   "prefecture_romaji": "Miyagi Ken",
   "latitude": 38.36666667,
   "longitude": 141.0666667
 },
 {
   "code": 44041,
   "name_kanji": "七ヶ浜町",
   "name_kana": "しちがはままち",
   "name_kana_breakdown": "しち,が,はま,まち",
   "name_romaji": "Shichigahama Machi",
   "prefecture_kanji": "宮城県",
   "prefecture_kana": "みやぎけん",
   "prefecture_kana_breakdown": "みや,ぎ,けん",
   "prefecture_romaji": "Miyagi Ken",
   "latitude": 38.304528,
   "longitude": 141.059139
 },
 {
   "code": 44067,
   "name_kanji": "利府町",
   "name_kana": "りふちょう",
   "name_kana_breakdown": "り,ふ,ちょう",
   "name_romaji": "Rifu Cho",
   "prefecture_kanji": "宮城県",
   "prefecture_kana": "みやぎけん",
   "prefecture_kana_breakdown": "みや,ぎ,けん",
   "prefecture_romaji": "Miyagi Ken",
   "latitude": 38.31666667,
   "longitude": 140.9666667
 },
 {
   "code": 44211,
   "name_kanji": "大和町",
   "name_kana": "たいわちょう",
   "name_kana_breakdown": "たい,わ,ちょう",
   "name_romaji": "Taiwa Cho",
   "prefecture_kanji": "宮城県",
   "prefecture_kana": "みやぎけん",
   "prefecture_kana_breakdown": "みや,ぎ,けん",
   "prefecture_romaji": "Miyagi Ken",
   "latitude": 38.43333333,
   "longitude": 140.8833333
 },
 {
   "code": 44229,
   "name_kanji": "大郷町",
   "name_kana": "おおさとちょう",
   "name_kana_breakdown": "おお,さと,ちょう",
   "name_romaji": "Osato Cho",
   "prefecture_kanji": "宮城県",
   "prefecture_kana": "みやぎけん",
   "prefecture_kana_breakdown": "みや,ぎ,けん",
   "prefecture_romaji": "Miyagi Ken",
   "latitude": 38.41666667,
   "longitude": 141
 },